<?xml version="1.0" encoding="UTF-8"?>
<kml xmlns="http://www.opengis.net/kml/2.2">
<Document>
    <name>GTFS stops</name>
    <Schema name="gtfs_shapes" id="gtfs_shapes">
        <SimpleField type="string" name="shape_id"></SimpleField>
    </Schema>
    <Schema name="gtfs_stops" id="gtfs_stops">
        <SimpleField type="string" name="stop_id"></SimpleField>
        <SimpleField type="string" name="stop_name"></SimpleField>
    </Schema>
    <Style id="style_gtfs_feature">
        <IconStyle>
            <scale>1.1</scale>
            <Icon>
                <href>http://maps.google.com/mapfiles/kml/shapes/bus.png</href>
            </Icon>
            <hotSpot x="20" y="2" xunits="pixels" yunits="pixels"/>
        </IconStyle>
        <LineStyle>
            <color>ff00ffff</color>
            <width>2</width>
        </LineStyle>
    </Style>
    <Style id="style_gtfs_feature_highlight">
        <IconStyle>
            <scale>1.3</scale>
            <Icon>
                <href>http://maps.google.com/mapfiles/kml/shapes/bus.png</href>
            </Icon>
            <hotSpot x="20" y="2" xunits="pixels" yunits="pixels"/>
        </IconStyle>
        <LineStyle>
            <color>ff00ffff</color>
            <width>2</width>
        </LineStyle>
    </Style>
    <StyleMap id="gtfs_feature">
        <Pair>
            <key>normal</key>
            <styleUrl>#style_gtfs_feature</styleUrl>
        </Pair>
        <Pair>
            <key>highlight</key>
            <styleUrl>#style_gtfs_feature_highlight</styleUrl>
        </Pair>
    </StyleMap>
    <Folder>
        <name>GTFS stops</name>
        <open>1</open>
        <Placemark>
    <name><![CDATA[La Robella (télésiège)]]></name>
    <styleUrl>#gtfs_feature</styleUrl>
    <ExtendedData>
        <SchemaData schemaUrl="#gtfs_stops">
            <SimpleData name="stop_id">8530004</SimpleData>
            <SimpleData name="stop_name"><![CDATA[La Robella (télésiège)]]></SimpleData>
        </SchemaData>
    </ExtendedData>
    <Point><coordinates>6.548731,46.875984,0</coordinates></Point>
</Placemark>
<Placemark>
    <name><![CDATA[Buttes (télésiège)]]></name>
    <styleUrl>#gtfs_feature</styleUrl>
    <ExtendedData>
        <SchemaData schemaUrl="#gtfs_stops">
            <SimpleData name="stop_id">8530005</SimpleData>
            <SimpleData name="stop_name"><![CDATA[Buttes (télésiège)]]></SimpleData>
        </SchemaData>
    </ExtendedData>
    <Point><coordinates>6.551343,46.886189,0</coordinates></Point>
</Placemark>
<Placemark>
    <name><![CDATA[Schwarzsee Gypsera (Talstat.)]]></name>
    <styleUrl>#gtfs_feature</styleUrl>
    <ExtendedData>
        <SchemaData schemaUrl="#gtfs_stops">
            <SimpleData name="stop_id">8530014</SimpleData>
            <SimpleData name="stop_name"><![CDATA[Schwarzsee Gypsera (Talstat.)]]></SimpleData>
        </SchemaData>
    </ExtendedData>
    <Point><coordinates>7.288321,46.669266,0</coordinates></Point>
</Placemark>
<Placemark>
    <name><![CDATA[Riggisalp (Bergstation)]]></name>
    <styleUrl>#gtfs_feature</styleUrl>
    <ExtendedData>
        <SchemaData schemaUrl="#gtfs_stops">
            <SimpleData name="stop_id">8530017</SimpleData>
            <SimpleData name="stop_name"><![CDATA[Riggisalp (Bergstation)]]></SimpleData>
        </SchemaData>
    </ExtendedData>
    <Point><coordinates>7.293654,46.65892,0</coordinates></Point>
</Placemark>
<Placemark>
    <name><![CDATA[Rougemont (télécabine)]]></name>
    <styleUrl>#gtfs_feature</styleUrl>
    <ExtendedData>
        <SchemaData schemaUrl="#gtfs_stops">
            <SimpleData name="stop_id">8530032</SimpleData>
            <SimpleData name="stop_name"><![CDATA[Rougemont (télécabine)]]></SimpleData>
        </SchemaData>
    </ExtendedData>
    <Point><coordinates>7.208493,46.485703,0</coordinates></Point>
</Placemark>
<Placemark>
    <name><![CDATA[Col-du-Pillon (téléphérique)]]></name>
    <styleUrl>#gtfs_feature</styleUrl>
    <ExtendedData>
        <SchemaData schemaUrl="#gtfs_stops">
            <SimpleData name="stop_id">8530039</SimpleData>
            <SimpleData name="stop_name"><![CDATA[Col-du-Pillon (téléphérique)]]></SimpleData>
        </SchemaData>
    </ExtendedData>
    <Point><coordinates>7.205312,46.354141,0</coordinates></Point>
</Placemark>
<Placemark>
    <name><![CDATA[La Barboleuse (télécabine)]]></name>
    <styleUrl>#gtfs_feature</styleUrl>
    <ExtendedData>
        <SchemaData schemaUrl="#gtfs_stops">
            <SimpleData name="stop_id">8530040</SimpleData>
            <SimpleData name="stop_name"><![CDATA[La Barboleuse (télécabine)]]></SimpleData>
        </SchemaData>
    </ExtendedData>
    <Point><coordinates>7.076852,46.283745,0</coordinates></Point>
</Placemark>
<Placemark>
    <name><![CDATA[Les Chaux (Barboleuse)]]></name>
    <styleUrl>#gtfs_feature</styleUrl>
    <ExtendedData>
        <SchemaData schemaUrl="#gtfs_stops">
            <SimpleData name="stop_id">8530041</SimpleData>
            <SimpleData name="stop_name"><![CDATA[Les Chaux (Barboleuse)]]></SimpleData>
        </SchemaData>
    </ExtendedData>
    <Point><coordinates>7.104613,46.295086,0</coordinates></Point>
</Placemark>
<Placemark>
    <name><![CDATA[Villars-sur-Ollon (télécabine)]]></name>
    <styleUrl>#gtfs_feature</styleUrl>
    <ExtendedData>
        <SchemaData schemaUrl="#gtfs_stops">
            <SimpleData name="stop_id">8530042</SimpleData>
            <SimpleData name="stop_name"><![CDATA[Villars-sur-Ollon (télécabine)]]></SimpleData>
        </SchemaData>
    </ExtendedData>
    <Point><coordinates>7.054965,46.303654,0</coordinates></Point>
</Placemark>
<Placemark>
    <name><![CDATA[Roc-d'Orsay]]></name>
    <styleUrl>#gtfs_feature</styleUrl>
    <ExtendedData>
        <SchemaData schemaUrl="#gtfs_stops">
            <SimpleData name="stop_id">8530043</SimpleData>
            <SimpleData name="stop_name"><![CDATA[Roc-d'Orsay]]></SimpleData>
        </SchemaData>
    </ExtendedData>
    <Point><coordinates>7.06391,46.322086,0</coordinates></Point>
</Placemark>
<Placemark>
    <name><![CDATA[Morgins (La Foilleuse)]]></name>
    <styleUrl>#gtfs_feature</styleUrl>
    <ExtendedData>
        <SchemaData schemaUrl="#gtfs_stops">
            <SimpleData name="stop_id">8530070</SimpleData>
            <SimpleData name="stop_name"><![CDATA[Morgins (La Foilleuse)]]></SimpleData>
        </SchemaData>
    </ExtendedData>
    <Point><coordinates>6.85814,46.236755,0</coordinates></Point>
</Placemark>
<Placemark>
    <name><![CDATA[La Foilleuse (Morgins)]]></name>
    <styleUrl>#gtfs_feature</styleUrl>
    <ExtendedData>
        <SchemaData schemaUrl="#gtfs_stops">
            <SimpleData name="stop_id">8530071</SimpleData>
            <SimpleData name="stop_name"><![CDATA[La Foilleuse (Morgins)]]></SimpleData>
        </SchemaData>
    </ExtendedData>
    <Point><coordinates>6.861233,46.225067,0</coordinates></Point>
</Placemark>
<Placemark>
    <name><![CDATA[Les Crosets]]></name>
    <styleUrl>#gtfs_feature</styleUrl>
    <ExtendedData>
        <SchemaData schemaUrl="#gtfs_stops">
            <SimpleData name="stop_id">8530078</SimpleData>
            <SimpleData name="stop_name"><![CDATA[Les Crosets]]></SimpleData>
        </SchemaData>
    </ExtendedData>
    <Point><coordinates>6.834032,46.18388,0</coordinates></Point>
</Placemark>
<Placemark>
    <name><![CDATA[Pointe-des-Mossettes]]></name>
    <styleUrl>#gtfs_feature</styleUrl>
    <ExtendedData>
        <SchemaData schemaUrl="#gtfs_stops">
            <SimpleData name="stop_id">8530079</SimpleData>
            <SimpleData name="stop_name"><![CDATA[Pointe-des-Mossettes]]></SimpleData>
        </SchemaData>
    </ExtendedData>
    <Point><coordinates>6.815625,46.192081,0</coordinates></Point>
</Placemark>
<Placemark>
    <name><![CDATA[Dorénaz (téléphérique)]]></name>
    <styleUrl>#gtfs_feature</styleUrl>
    <ExtendedData>
        <SchemaData schemaUrl="#gtfs_stops">
            <SimpleData name="stop_id">8530084</SimpleData>
            <SimpleData name="stop_name"><![CDATA[Dorénaz (téléphérique)]]></SimpleData>
        </SchemaData>
    </ExtendedData>
    <Point><coordinates>7.044333,46.150394,0</coordinates></Point>
</Placemark>
<Placemark>
    <name><![CDATA[Champex-d'Alesse]]></name>
    <styleUrl>#gtfs_feature</styleUrl>
    <ExtendedData>
        <SchemaData schemaUrl="#gtfs_stops">
            <SimpleData name="stop_id">8530085</SimpleData>
            <SimpleData name="stop_name"><![CDATA[Champex-d'Alesse]]></SimpleData>
        </SchemaData>
    </ExtendedData>
    <Point><coordinates>7.059207,46.148193,0</coordinates></Point>
</Placemark>
<Placemark>
    <name><![CDATA[Alesse]]></name>
    <styleUrl>#gtfs_feature</styleUrl>
    <ExtendedData>
        <SchemaData schemaUrl="#gtfs_stops">
            <SimpleData name="stop_id">8530086</SimpleData>
            <SimpleData name="stop_name"><![CDATA[Alesse]]></SimpleData>
        </SchemaData>
    </ExtendedData>
    <Point><coordinates>7.053882,46.148975,0</coordinates></Point>
</Placemark>
<Placemark>
    <name><![CDATA[Champex (télésiège)]]></name>
    <styleUrl>#gtfs_feature</styleUrl>
    <ExtendedData>
        <SchemaData schemaUrl="#gtfs_stops">
            <SimpleData name="stop_id">8530087</SimpleData>
            <SimpleData name="stop_name"><![CDATA[Champex (télésiège)]]></SimpleData>
        </SchemaData>
    </ExtendedData>
    <Point><coordinates>7.106592,46.031456,0</coordinates></Point>
</Placemark>
<Placemark>
    <name><![CDATA[La Breya]]></name>
    <styleUrl>#gtfs_feature</styleUrl>
    <ExtendedData>
        <SchemaData schemaUrl="#gtfs_stops">
            <SimpleData name="stop_id">8530088</SimpleData>
            <SimpleData name="stop_name"><![CDATA[La Breya]]></SimpleData>
        </SchemaData>
    </ExtendedData>
    <Point><coordinates>7.103217,46.021675,0</coordinates></Point>
</Placemark>
<Placemark>
    <name><![CDATA[Verbier (télécabine)]]></name>
    <styleUrl>#gtfs_feature</styleUrl>
    <ExtendedData>
        <SchemaData schemaUrl="#gtfs_stops">
            <SimpleData name="stop_id">8530095</SimpleData>
            <SimpleData name="stop_name"><![CDATA[Verbier (télécabine)]]></SimpleData>
        </SchemaData>
    </ExtendedData>
    <Point><coordinates>7.233673,46.09362,0</coordinates></Point>
</Placemark>
<Placemark>
    <name><![CDATA[Croix-des-Ruinettes]]></name>
    <styleUrl>#gtfs_feature</styleUrl>
    <ExtendedData>
        <SchemaData schemaUrl="#gtfs_stops">
            <SimpleData name="stop_id">8530096</SimpleData>
            <SimpleData name="stop_name"><![CDATA[Croix-des-Ruinettes]]></SimpleData>
        </SchemaData>
    </ExtendedData>
    <Point><coordinates>7.252882,46.091236,0</coordinates></Point>
</Placemark>
<Placemark>
    <name><![CDATA[Tortin (Col-des-Gentianes)]]></name>
    <styleUrl>#gtfs_feature</styleUrl>
    <ExtendedData>
        <SchemaData schemaUrl="#gtfs_stops">
            <SimpleData name="stop_id">8530099</SimpleData>
            <SimpleData name="stop_name"><![CDATA[Tortin (Col-des-Gentianes)]]></SimpleData>
        </SchemaData>
    </ExtendedData>
    <Point><coordinates>7.304207,46.113438,0</coordinates></Point>
</Placemark>
<Placemark>
    <name><![CDATA[Col-des-Gentianes]]></name>
    <styleUrl>#gtfs_feature</styleUrl>
    <ExtendedData>
        <SchemaData schemaUrl="#gtfs_stops">
            <SimpleData name="stop_id">8530101</SimpleData>
            <SimpleData name="stop_name"><![CDATA[Col-des-Gentianes]]></SimpleData>
        </SchemaData>
    </ExtendedData>
    <Point><coordinates>7.302028,46.085098,0</coordinates></Point>
</Placemark>
<Placemark>
    <name><![CDATA[Mont-Fort]]></name>
    <styleUrl>#gtfs_feature</styleUrl>
    <ExtendedData>
        <SchemaData schemaUrl="#gtfs_stops">
            <SimpleData name="stop_id">8530102</SimpleData>
            <SimpleData name="stop_name"><![CDATA[Mont-Fort]]></SimpleData>
        </SchemaData>
    </ExtendedData>
    <Point><coordinates>7.318289,46.080109,0</coordinates></Point>
</Placemark>
<Placemark>
    <name><![CDATA[La Chaux VS]]></name>
    <styleUrl>#gtfs_feature</styleUrl>
    <ExtendedData>
        <SchemaData schemaUrl="#gtfs_stops">
            <SimpleData name="stop_id">8530103</SimpleData>
            <SimpleData name="stop_name"><![CDATA[La Chaux VS]]></SimpleData>
        </SchemaData>
    </ExtendedData>
    <Point><coordinates>7.270319,46.07999,0</coordinates></Point>
</Placemark>
<Placemark>
    <name><![CDATA[Verbier Les Creux]]></name>
    <styleUrl>#gtfs_feature</styleUrl>
    <ExtendedData>
        <SchemaData schemaUrl="#gtfs_stops">
            <SimpleData name="stop_id">8530104</SimpleData>
            <SimpleData name="stop_name"><![CDATA[Verbier Les Creux]]></SimpleData>
        </SchemaData>
    </ExtendedData>
    <Point><coordinates>7.224802,46.103825,0</coordinates></Point>
</Placemark>
<Placemark>
    <name><![CDATA[Savoleyres]]></name>
    <styleUrl>#gtfs_feature</styleUrl>
    <ExtendedData>
        <SchemaData schemaUrl="#gtfs_stops">
            <SimpleData name="stop_id">8530105</SimpleData>
            <SimpleData name="stop_name"><![CDATA[Savoleyres]]></SimpleData>
        </SchemaData>
    </ExtendedData>
    <Point><coordinates>7.218985,46.12236,0</coordinates></Point>
</Placemark>
<Placemark>
    <name><![CDATA[La Tzoumaz (téléc. Savoleyres)]]></name>
    <styleUrl>#gtfs_feature</styleUrl>
    <ExtendedData>
        <SchemaData schemaUrl="#gtfs_stops">
            <SimpleData name="stop_id">8530106</SimpleData>
            <SimpleData name="stop_name"><![CDATA[La Tzoumaz (téléc. Savoleyres)]]></SimpleData>
        </SchemaData>
    </ExtendedData>
    <Point><coordinates>7.233079,46.144714,0</coordinates></Point>
</Placemark>
<Placemark>
    <name><![CDATA[Riddes (téléphérique)]]></name>
    <styleUrl>#gtfs_feature</styleUrl>
    <ExtendedData>
        <SchemaData schemaUrl="#gtfs_stops">
            <SimpleData name="stop_id">8530107</SimpleData>
            <SimpleData name="stop_name"><![CDATA[Riddes (téléphérique)]]></SimpleData>
        </SchemaData>
    </ExtendedData>
    <Point><coordinates>7.221494,46.171085,0</coordinates></Point>
</Placemark>
<Placemark>
    <name><![CDATA[Haute-Nendaz (télécabine)]]></name>
    <styleUrl>#gtfs_feature</styleUrl>
    <ExtendedData>
        <SchemaData schemaUrl="#gtfs_stops">
            <SimpleData name="stop_id">8530108</SimpleData>
            <SimpleData name="stop_name"><![CDATA[Haute-Nendaz (télécabine)]]></SimpleData>
        </SchemaData>
    </ExtendedData>
    <Point><coordinates>7.291208,46.179916,0</coordinates></Point>
</Placemark>
<Placemark>
    <name><![CDATA[Tracouet (Haute-Nendaz)]]></name>
    <styleUrl>#gtfs_feature</styleUrl>
    <ExtendedData>
        <SchemaData schemaUrl="#gtfs_stops">
            <SimpleData name="stop_id">8530109</SimpleData>
            <SimpleData name="stop_name"><![CDATA[Tracouet (Haute-Nendaz)]]></SimpleData>
        </SchemaData>
    </ExtendedData>
    <Point><coordinates>7.283231,46.161709,0</coordinates></Point>
</Placemark>
<Placemark>
    <name><![CDATA[Siviez (station aval)]]></name>
    <styleUrl>#gtfs_feature</styleUrl>
    <ExtendedData>
        <SchemaData schemaUrl="#gtfs_stops">
            <SimpleData name="stop_id">8530113</SimpleData>
            <SimpleData name="stop_name"><![CDATA[Siviez (station aval)]]></SimpleData>
        </SchemaData>
    </ExtendedData>
    <Point><coordinates>7.31567,46.134941,0</coordinates></Point>
</Placemark>
<Placemark>
    <name><![CDATA[Tortin (Siviez)]]></name>
    <styleUrl>#gtfs_feature</styleUrl>
    <ExtendedData>
        <SchemaData schemaUrl="#gtfs_stops">
            <SimpleData name="stop_id">8530115</SimpleData>
            <SimpleData name="stop_name"><![CDATA[Tortin (Siviez)]]></SimpleData>
        </SchemaData>
    </ExtendedData>
    <Point><coordinates>7.304336,46.113655,0</coordinates></Point>
</Placemark>
<Placemark>
    <name><![CDATA[Combatzeline]]></name>
    <styleUrl>#gtfs_feature</styleUrl>
    <ExtendedData>
        <SchemaData schemaUrl="#gtfs_stops">
            <SimpleData name="stop_id">8530116</SimpleData>
            <SimpleData name="stop_name"><![CDATA[Combatzeline]]></SimpleData>
        </SchemaData>
    </ExtendedData>
    <Point><coordinates>7.333645,46.140186,0</coordinates></Point>
</Placemark>
<Placemark>
    <name><![CDATA[Veysonnaz (télécabine)]]></name>
    <styleUrl>#gtfs_feature</styleUrl>
    <ExtendedData>
        <SchemaData schemaUrl="#gtfs_stops">
            <SimpleData name="stop_id">8530119</SimpleData>
            <SimpleData name="stop_name"><![CDATA[Veysonnaz (télécabine)]]></SimpleData>
        </SchemaData>
    </ExtendedData>
    <Point><coordinates>7.342787,46.195637,0</coordinates></Point>
</Placemark>
<Placemark>
    <name><![CDATA[Thyon]]></name>
    <styleUrl>#gtfs_feature</styleUrl>
    <ExtendedData>
        <SchemaData schemaUrl="#gtfs_stops">
            <SimpleData name="stop_id">8530120</SimpleData>
            <SimpleData name="stop_name"><![CDATA[Thyon]]></SimpleData>
        </SchemaData>
    </ExtendedData>
    <Point><coordinates>7.36672,46.179947,0</coordinates></Point>
</Placemark>
<Placemark>
    <name><![CDATA[Les Collons (Trabanta)]]></name>
    <styleUrl>#gtfs_feature</styleUrl>
    <ExtendedData>
        <SchemaData schemaUrl="#gtfs_stops">
            <SimpleData name="stop_id">8530124</SimpleData>
            <SimpleData name="stop_name"><![CDATA[Les Collons (Trabanta)]]></SimpleData>
        </SchemaData>
    </ExtendedData>
    <Point><coordinates>7.386534,46.180218,0</coordinates></Point>
</Placemark>
<Placemark>
    <name><![CDATA[Dixence (téléphérique)]]></name>
    <styleUrl>#gtfs_feature</styleUrl>
    <ExtendedData>
        <SchemaData schemaUrl="#gtfs_stops">
            <SimpleData name="stop_id">8530127</SimpleData>
            <SimpleData name="stop_name"><![CDATA[Dixence (téléphérique)]]></SimpleData>
        </SchemaData>
    </ExtendedData>
    <Point><coordinates>7.403368,46.08453,0</coordinates></Point>
</Placemark>
<Placemark>
    <name><![CDATA[Lac-des-Dix (téléphérique)]]></name>
    <styleUrl>#gtfs_feature</styleUrl>
    <ExtendedData>
        <SchemaData schemaUrl="#gtfs_stops">
            <SimpleData name="stop_id">8530128</SimpleData>
            <SimpleData name="stop_name"><![CDATA[Lac-des-Dix (téléphérique)]]></SimpleData>
        </SchemaData>
    </ExtendedData>
    <Point><coordinates>7.397372,46.080994,0</coordinates></Point>
</Placemark>
<Placemark>
    <name><![CDATA[Lana (télésiège)]]></name>
    <styleUrl>#gtfs_feature</styleUrl>
    <ExtendedData>
        <SchemaData schemaUrl="#gtfs_stops">
            <SimpleData name="stop_id">8530129</SimpleData>
            <SimpleData name="stop_name"><![CDATA[Lana (télésiège)]]></SimpleData>
        </SchemaData>
    </ExtendedData>
    <Point><coordinates>7.476989,46.121517,0</coordinates></Point>
</Placemark>
<Placemark>
    <name><![CDATA[La Meina (Lana)]]></name>
    <styleUrl>#gtfs_feature</styleUrl>
    <ExtendedData>
        <SchemaData schemaUrl="#gtfs_stops">
            <SimpleData name="stop_id">8530130</SimpleData>
            <SimpleData name="stop_name"><![CDATA[La Meina (Lana)]]></SimpleData>
        </SchemaData>
    </ExtendedData>
    <Point><coordinates>7.455567,46.120995,0</coordinates></Point>
</Placemark>
<Placemark>
    <name><![CDATA[Vercorin (station amont)]]></name>
    <styleUrl>#gtfs_feature</styleUrl>
    <ExtendedData>
        <SchemaData schemaUrl="#gtfs_stops">
            <SimpleData name="stop_id">8530134</SimpleData>
            <SimpleData name="stop_name"><![CDATA[Vercorin (station amont)]]></SimpleData>
        </SchemaData>
    </ExtendedData>
    <Point><coordinates>7.526285,46.256786,0</coordinates></Point>
</Placemark>
<Placemark>
    <name><![CDATA[Vercorin (station aval)]]></name>
    <styleUrl>#gtfs_feature</styleUrl>
    <ExtendedData>
        <SchemaData schemaUrl="#gtfs_stops">
            <SimpleData name="stop_id">8530136</SimpleData>
            <SimpleData name="stop_name"><![CDATA[Vercorin (station aval)]]></SimpleData>
        </SchemaData>
    </ExtendedData>
    <Point><coordinates>7.534113,46.254028,0</coordinates></Point>
</Placemark>
<Placemark>
    <name><![CDATA[Crêt du Midi (station amont)]]></name>
    <styleUrl>#gtfs_feature</styleUrl>
    <ExtendedData>
        <SchemaData schemaUrl="#gtfs_stops">
            <SimpleData name="stop_id">8530137</SimpleData>
            <SimpleData name="stop_name"><![CDATA[Crêt du Midi (station amont)]]></SimpleData>
        </SchemaData>
    </ExtendedData>
    <Point><coordinates>7.529663,46.229465,0</coordinates></Point>
</Placemark>
<Placemark>
    <name><![CDATA[Grimentz (télé)]]></name>
    <styleUrl>#gtfs_feature</styleUrl>
    <ExtendedData>
        <SchemaData schemaUrl="#gtfs_stops">
            <SimpleData name="stop_id">8530139</SimpleData>
            <SimpleData name="stop_name"><![CDATA[Grimentz (télé)]]></SimpleData>
        </SchemaData>
    </ExtendedData>
    <Point><coordinates>7.573473,46.176212,0</coordinates></Point>
</Placemark>
<Placemark>
    <name><![CDATA[Bendolla]]></name>
    <styleUrl>#gtfs_feature</styleUrl>
    <ExtendedData>
        <SchemaData schemaUrl="#gtfs_stops">
            <SimpleData name="stop_id">8530140</SimpleData>
            <SimpleData name="stop_name"><![CDATA[Bendolla]]></SimpleData>
        </SchemaData>
    </ExtendedData>
    <Point><coordinates>7.558306,46.180565,0</coordinates></Point>
</Placemark>
<Placemark>
    <name><![CDATA[Zinal (télépherique)]]></name>
    <styleUrl>#gtfs_feature</styleUrl>
    <ExtendedData>
        <SchemaData schemaUrl="#gtfs_stops">
            <SimpleData name="stop_id">8530144</SimpleData>
            <SimpleData name="stop_name"><![CDATA[Zinal (télépherique)]]></SimpleData>
        </SchemaData>
    </ExtendedData>
    <Point><coordinates>7.624079,46.138306,0</coordinates></Point>
</Placemark>
<Placemark>
    <name><![CDATA[Sorebois]]></name>
    <styleUrl>#gtfs_feature</styleUrl>
    <ExtendedData>
        <SchemaData schemaUrl="#gtfs_stops">
            <SimpleData name="stop_id">8530145</SimpleData>
            <SimpleData name="stop_name"><![CDATA[Sorebois]]></SimpleData>
        </SchemaData>
    </ExtendedData>
    <Point><coordinates>7.60373,46.144417,0</coordinates></Point>
</Placemark>
<Placemark>
    <name><![CDATA[Chandolin (télésiège)]]></name>
    <styleUrl>#gtfs_feature</styleUrl>
    <ExtendedData>
        <SchemaData schemaUrl="#gtfs_stops">
            <SimpleData name="stop_id">8530146</SimpleData>
            <SimpleData name="stop_name"><![CDATA[Chandolin (télésiège)]]></SimpleData>
        </SchemaData>
    </ExtendedData>
    <Point><coordinates>7.604392,46.247929,0</coordinates></Point>
</Placemark>
<Placemark>
    <name><![CDATA[Tsapé]]></name>
    <styleUrl>#gtfs_feature</styleUrl>
    <ExtendedData>
        <SchemaData schemaUrl="#gtfs_stops">
            <SimpleData name="stop_id">8530147</SimpleData>
            <SimpleData name="stop_name"><![CDATA[Tsapé]]></SimpleData>
        </SchemaData>
    </ExtendedData>
    <Point><coordinates>7.620794,46.251682,0</coordinates></Point>
</Placemark>
<Placemark>
    <name><![CDATA[Ovronnaz (télésiège)]]></name>
    <styleUrl>#gtfs_feature</styleUrl>
    <ExtendedData>
        <SchemaData schemaUrl="#gtfs_stops">
            <SimpleData name="stop_id">8530149</SimpleData>
            <SimpleData name="stop_name"><![CDATA[Ovronnaz (télésiège)]]></SimpleData>
        </SchemaData>
    </ExtendedData>
    <Point><coordinates>7.160687,46.204605,0</coordinates></Point>
</Placemark>
<Placemark>
    <name><![CDATA[Jorasse]]></name>
    <styleUrl>#gtfs_feature</styleUrl>
    <ExtendedData>
        <SchemaData schemaUrl="#gtfs_stops">
            <SimpleData name="stop_id">8530150</SimpleData>
            <SimpleData name="stop_name"><![CDATA[Jorasse]]></SimpleData>
        </SchemaData>
    </ExtendedData>
    <Point><coordinates>7.14197,46.203758,0</coordinates></Point>
</Placemark>
<Placemark>
    <name><![CDATA[Anzère (télécabine)]]></name>
    <styleUrl>#gtfs_feature</styleUrl>
    <ExtendedData>
        <SchemaData schemaUrl="#gtfs_stops">
            <SimpleData name="stop_id">8530151</SimpleData>
            <SimpleData name="stop_name"><![CDATA[Anzère (télécabine)]]></SimpleData>
        </SchemaData>
    </ExtendedData>
    <Point><coordinates>7.394883,46.295258,0</coordinates></Point>
</Placemark>
<Placemark>
    <name><![CDATA[Pas-de-Maimbré]]></name>
    <styleUrl>#gtfs_feature</styleUrl>
    <ExtendedData>
        <SchemaData schemaUrl="#gtfs_stops">
            <SimpleData name="stop_id">8530152</SimpleData>
            <SimpleData name="stop_name"><![CDATA[Pas-de-Maimbré]]></SimpleData>
        </SchemaData>
    </ExtendedData>
    <Point><coordinates>7.385834,46.312229,0</coordinates></Point>
</Placemark>
<Placemark>
    <name><![CDATA[Crans-s.-S. (télécabine)]]></name>
    <styleUrl>#gtfs_feature</styleUrl>
    <ExtendedData>
        <SchemaData schemaUrl="#gtfs_stops">
            <SimpleData name="stop_id">8530159</SimpleData>
            <SimpleData name="stop_name"><![CDATA[Crans-s.-S. (télécabine)]]></SimpleData>
        </SchemaData>
    </ExtendedData>
    <Point><coordinates>7.467331,46.308647,0</coordinates></Point>
</Placemark>
<Placemark>
    <name><![CDATA[Cry-d'Er (Crans-s.-S.)]]></name>
    <styleUrl>#gtfs_feature</styleUrl>
    <ExtendedData>
        <SchemaData schemaUrl="#gtfs_stops">
            <SimpleData name="stop_id">8530161</SimpleData>
            <SimpleData name="stop_name"><![CDATA[Cry-d'Er (Crans-s.-S.)]]></SimpleData>
        </SchemaData>
    </ExtendedData>
    <Point><coordinates>7.477708,46.334812,0</coordinates></Point>
</Placemark>
<Placemark>
    <name><![CDATA[Montana (télécab. rte Vermala)]]></name>
    <styleUrl>#gtfs_feature</styleUrl>
    <ExtendedData>
        <SchemaData schemaUrl="#gtfs_stops">
            <SimpleData name="stop_id">8530163</SimpleData>
            <SimpleData name="stop_name"><![CDATA[Montana (télécab. rte Vermala)]]></SimpleData>
        </SchemaData>
    </ExtendedData>
    <Point><coordinates>7.479185,46.312874,0</coordinates></Point>
</Placemark>
<Placemark>
    <name><![CDATA[Montana (Zaumiau)]]></name>
    <styleUrl>#gtfs_feature</styleUrl>
    <ExtendedData>
        <SchemaData schemaUrl="#gtfs_stops">
            <SimpleData name="stop_id">8530167</SimpleData>
            <SimpleData name="stop_name"><![CDATA[Montana (Zaumiau)]]></SimpleData>
        </SchemaData>
    </ExtendedData>
    <Point><coordinates>7.498575,46.32061,0</coordinates></Point>
</Placemark>
<Placemark>
    <name><![CDATA[Les Marolires]]></name>
    <styleUrl>#gtfs_feature</styleUrl>
    <ExtendedData>
        <SchemaData schemaUrl="#gtfs_stops">
            <SimpleData name="stop_id">8530168</SimpleData>
            <SimpleData name="stop_name"><![CDATA[Les Marolires]]></SimpleData>
        </SchemaData>
    </ExtendedData>
    <Point><coordinates>7.495309,46.325775,0</coordinates></Point>
</Placemark>
<Placemark>
    <name><![CDATA[Cabane-des-Violettes]]></name>
    <styleUrl>#gtfs_feature</styleUrl>
    <ExtendedData>
        <SchemaData schemaUrl="#gtfs_stops">
            <SimpleData name="stop_id">8530169</SimpleData>
            <SimpleData name="stop_name"><![CDATA[Cabane-des-Violettes]]></SimpleData>
        </SchemaData>
    </ExtendedData>
    <Point><coordinates>7.4983,46.342468,0</coordinates></Point>
</Placemark>
<Placemark>
    <name><![CDATA[Glacier-de-la-Plaine-Morte]]></name>
    <styleUrl>#gtfs_feature</styleUrl>
    <ExtendedData>
        <SchemaData schemaUrl="#gtfs_stops">
            <SimpleData name="stop_id">8530173</SimpleData>
            <SimpleData name="stop_name"><![CDATA[Glacier-de-la-Plaine-Morte]]></SimpleData>
        </SchemaData>
    </ExtendedData>
    <Point><coordinates>7.488934,46.369911,0</coordinates></Point>
</Placemark>
<Placemark>
    <name><![CDATA[Albinenleitern (Torrentbahn)]]></name>
    <styleUrl>#gtfs_feature</styleUrl>
    <ExtendedData>
        <SchemaData schemaUrl="#gtfs_stops">
            <SimpleData name="stop_id">8530179</SimpleData>
            <SimpleData name="stop_name"><![CDATA[Albinenleitern (Torrentbahn)]]></SimpleData>
        </SchemaData>
    </ExtendedData>
    <Point><coordinates>7.622914,46.361019,0</coordinates></Point>
</Placemark>
<Placemark>
    <name><![CDATA[Turtmann (Talstation)]]></name>
    <styleUrl>#gtfs_feature</styleUrl>
    <ExtendedData>
        <SchemaData schemaUrl="#gtfs_stops">
            <SimpleData name="stop_id">8530180</SimpleData>
            <SimpleData name="stop_name"><![CDATA[Turtmann (Talstation)]]></SimpleData>
        </SchemaData>
    </ExtendedData>
    <Point><coordinates>7.701482,46.298588,0</coordinates></Point>
</Placemark>
<Placemark>
    <name><![CDATA[Unterems]]></name>
    <styleUrl>#gtfs_feature</styleUrl>
    <ExtendedData>
        <SchemaData schemaUrl="#gtfs_stops">
            <SimpleData name="stop_id">8530181</SimpleData>
            <SimpleData name="stop_name"><![CDATA[Unterems]]></SimpleData>
        </SchemaData>
    </ExtendedData>
    <Point><coordinates>7.69917,46.292809,0</coordinates></Point>
</Placemark>
<Placemark>
    <name><![CDATA[Oberems]]></name>
    <styleUrl>#gtfs_feature</styleUrl>
    <ExtendedData>
        <SchemaData schemaUrl="#gtfs_stops">
            <SimpleData name="stop_id">8530182</SimpleData>
            <SimpleData name="stop_name"><![CDATA[Oberems]]></SimpleData>
        </SchemaData>
    </ExtendedData>
    <Point><coordinates>7.695464,46.282967,0</coordinates></Point>
</Placemark>
<Placemark>
    <name><![CDATA[Gampel (Talstation Jeizinen)]]></name>
    <styleUrl>#gtfs_feature</styleUrl>
    <ExtendedData>
        <SchemaData schemaUrl="#gtfs_stops">
            <SimpleData name="stop_id">8530183</SimpleData>
            <SimpleData name="stop_name"><![CDATA[Gampel (Talstation Jeizinen)]]></SimpleData>
        </SchemaData>
    </ExtendedData>
    <Point><coordinates>7.739291,46.315495,0</coordinates></Point>
</Placemark>
<Placemark>
    <name><![CDATA[Jeizinen (Bergstation)]]></name>
    <styleUrl>#gtfs_feature</styleUrl>
    <ExtendedData>
        <SchemaData schemaUrl="#gtfs_stops">
            <SimpleData name="stop_id">8530184</SimpleData>
            <SimpleData name="stop_name"><![CDATA[Jeizinen (Bergstation)]]></SimpleData>
        </SchemaData>
    </ExtendedData>
    <Point><coordinates>7.722794,46.326298,0</coordinates></Point>
</Placemark>
<Placemark>
    <name><![CDATA[Raron (Talstation Eischoll)]]></name>
    <styleUrl>#gtfs_feature</styleUrl>
    <ExtendedData>
        <SchemaData schemaUrl="#gtfs_stops">
            <SimpleData name="stop_id">8530187</SimpleData>
            <SimpleData name="stop_name"><![CDATA[Raron (Talstation Eischoll)]]></SimpleData>
        </SchemaData>
    </ExtendedData>
    <Point><coordinates>7.800798,46.303173,0</coordinates></Point>
</Placemark>
<Placemark>
    <name><![CDATA[Eischoll (Bergstation)]]></name>
    <styleUrl>#gtfs_feature</styleUrl>
    <ExtendedData>
        <SchemaData schemaUrl="#gtfs_stops">
            <SimpleData name="stop_id">8530188</SimpleData>
            <SimpleData name="stop_name"><![CDATA[Eischoll (Bergstation)]]></SimpleData>
        </SchemaData>
    </ExtendedData>
    <Point><coordinates>7.783801,46.293968,0</coordinates></Point>
</Placemark>
<Placemark>
    <name><![CDATA[Unterbäch (Talstation Brand)]]></name>
    <styleUrl>#gtfs_feature</styleUrl>
    <ExtendedData>
        <SchemaData schemaUrl="#gtfs_stops">
            <SimpleData name="stop_id">8530192</SimpleData>
            <SimpleData name="stop_name"><![CDATA[Unterbäch (Talstation Brand)]]></SimpleData>
        </SchemaData>
    </ExtendedData>
    <Point><coordinates>7.801293,46.28392,0</coordinates></Point>
</Placemark>
<Placemark>
    <name><![CDATA[Brand (Unterbäch)]]></name>
    <styleUrl>#gtfs_feature</styleUrl>
    <ExtendedData>
        <SchemaData schemaUrl="#gtfs_stops">
            <SimpleData name="stop_id">8530193</SimpleData>
            <SimpleData name="stop_name"><![CDATA[Brand (Unterbäch)]]></SimpleData>
        </SchemaData>
    </ExtendedData>
    <Point><coordinates>7.797871,46.274639,0</coordinates></Point>
</Placemark>
<Placemark>
    <name><![CDATA[Visperterminen (Talstation)]]></name>
    <styleUrl>#gtfs_feature</styleUrl>
    <ExtendedData>
        <SchemaData schemaUrl="#gtfs_stops">
            <SimpleData name="stop_id">8530194</SimpleData>
            <SimpleData name="stop_name"><![CDATA[Visperterminen (Talstation)]]></SimpleData>
        </SchemaData>
    </ExtendedData>
    <Point><coordinates>7.904291,46.258347,0</coordinates></Point>
</Placemark>
<Placemark>
    <name><![CDATA[Giw]]></name>
    <styleUrl>#gtfs_feature</styleUrl>
    <ExtendedData>
        <SchemaData schemaUrl="#gtfs_stops">
            <SimpleData name="stop_id">8530195</SimpleData>
            <SimpleData name="stop_name"><![CDATA[Giw]]></SimpleData>
        </SchemaData>
    </ExtendedData>
    <Point><coordinates>7.923071,46.25555,0</coordinates></Point>
</Placemark>
<Placemark>
    <name><![CDATA[Kalpetran (Seilbahn)Talstation]]></name>
    <styleUrl>#gtfs_feature</styleUrl>
    <ExtendedData>
        <SchemaData schemaUrl="#gtfs_stops">
            <SimpleData name="stop_id">8530196</SimpleData>
            <SimpleData name="stop_name"><![CDATA[Kalpetran (Seilbahn)Talstation]]></SimpleData>
        </SchemaData>
    </ExtendedData>
    <Point><coordinates>7.836816,46.214317,0</coordinates></Point>
</Placemark>
<Placemark>
    <name><![CDATA[Embd (Seilbahn) Bergstation]]></name>
    <styleUrl>#gtfs_feature</styleUrl>
    <ExtendedData>
        <SchemaData schemaUrl="#gtfs_stops">
            <SimpleData name="stop_id">8530197</SimpleData>
            <SimpleData name="stop_name"><![CDATA[Embd (Seilbahn) Bergstation]]></SimpleData>
        </SchemaData>
    </ExtendedData>
    <Point><coordinates>7.827732,46.216167,0</coordinates></Point>
</Placemark>
<Placemark>
    <name><![CDATA[Embd (Luftseilbahn)]]></name>
    <styleUrl>#gtfs_feature</styleUrl>
    <ExtendedData>
        <SchemaData schemaUrl="#gtfs_stops">
            <SimpleData name="stop_id">8530198</SimpleData>
            <SimpleData name="stop_name"><![CDATA[Embd (Luftseilbahn)]]></SimpleData>
        </SchemaData>
    </ExtendedData>
    <Point><coordinates>7.826026,46.215004,0</coordinates></Point>
</Placemark>
<Placemark>
    <name><![CDATA[Schalb]]></name>
    <styleUrl>#gtfs_feature</styleUrl>
    <ExtendedData>
        <SchemaData schemaUrl="#gtfs_stops">
            <SimpleData name="stop_id">8530199</SimpleData>
            <SimpleData name="stop_name"><![CDATA[Schalb]]></SimpleData>
        </SchemaData>
    </ExtendedData>
    <Point><coordinates>7.81671,46.217022,0</coordinates></Point>
</Placemark>
<Placemark>
    <name><![CDATA[Grächen (Talstation Hannigalp)]]></name>
    <styleUrl>#gtfs_feature</styleUrl>
    <ExtendedData>
        <SchemaData schemaUrl="#gtfs_stops">
            <SimpleData name="stop_id">8530200</SimpleData>
            <SimpleData name="stop_name"><![CDATA[Grächen (Talstation Hannigalp)]]></SimpleData>
        </SchemaData>
    </ExtendedData>
    <Point><coordinates>7.841506,46.196651,0</coordinates></Point>
</Placemark>
<Placemark>
    <name><![CDATA[Zermatt (Matterhorn Talstat.)]]></name>
    <styleUrl>#gtfs_feature</styleUrl>
    <ExtendedData>
        <SchemaData schemaUrl="#gtfs_stops">
            <SimpleData name="stop_id">8530206</SimpleData>
            <SimpleData name="stop_name"><![CDATA[Zermatt (Matterhorn Talstat.)]]></SimpleData>
        </SchemaData>
    </ExtendedData>
    <Point><coordinates>7.74287,46.014771,0</coordinates></Point>
</Placemark>
<Placemark>
    <name><![CDATA[Furi]]></name>
    <styleUrl>#gtfs_feature</styleUrl>
    <ExtendedData>
        <SchemaData schemaUrl="#gtfs_stops">
            <SimpleData name="stop_id">8530207</SimpleData>
            <SimpleData name="stop_name"><![CDATA[Furi]]></SimpleData>
        </SchemaData>
    </ExtendedData>
    <Point><coordinates>7.732277,46.00174,0</coordinates></Point>
</Placemark>
<Placemark>
    <name><![CDATA[Zermatt Schwarzsee]]></name>
    <styleUrl>#gtfs_feature</styleUrl>
    <ExtendedData>
        <SchemaData schemaUrl="#gtfs_stops">
            <SimpleData name="stop_id">8530208</SimpleData>
            <SimpleData name="stop_name"><![CDATA[Zermatt Schwarzsee]]></SimpleData>
        </SchemaData>
    </ExtendedData>
    <Point><coordinates>7.70951,45.991756,0</coordinates></Point>
</Placemark>
<Placemark>
    <name><![CDATA[Klein Matterhorn]]></name>
    <styleUrl>#gtfs_feature</styleUrl>
    <ExtendedData>
        <SchemaData schemaUrl="#gtfs_stops">
            <SimpleData name="stop_id">8530210</SimpleData>
            <SimpleData name="stop_name"><![CDATA[Klein Matterhorn]]></SimpleData>
        </SchemaData>
    </ExtendedData>
    <Point><coordinates>7.729621,45.939049,0</coordinates></Point>
</Placemark>
<Placemark>
    <name><![CDATA[Trockener Steg]]></name>
    <styleUrl>#gtfs_feature</styleUrl>
    <ExtendedData>
        <SchemaData schemaUrl="#gtfs_stops">
            <SimpleData name="stop_id">8530211</SimpleData>
            <SimpleData name="stop_name"><![CDATA[Trockener Steg]]></SimpleData>
        </SchemaData>
    </ExtendedData>
    <Point><coordinates>7.72222,45.971397,0</coordinates></Point>
</Placemark>
<Placemark>
    <name><![CDATA[Sunnegga (Talstation Blauherd)]]></name>
    <styleUrl>#gtfs_feature</styleUrl>
    <ExtendedData>
        <SchemaData schemaUrl="#gtfs_stops">
            <SimpleData name="stop_id">8530214</SimpleData>
            <SimpleData name="stop_name"><![CDATA[Sunnegga (Talstation Blauherd)]]></SimpleData>
        </SchemaData>
    </ExtendedData>
    <Point><coordinates>7.770473,46.016827,0</coordinates></Point>
</Placemark>
<Placemark>
    <name><![CDATA[Rothorn VS]]></name>
    <styleUrl>#gtfs_feature</styleUrl>
    <ExtendedData>
        <SchemaData schemaUrl="#gtfs_stops">
            <SimpleData name="stop_id">8530215</SimpleData>
            <SimpleData name="stop_name"><![CDATA[Rothorn VS]]></SimpleData>
        </SchemaData>
    </ExtendedData>
    <Point><coordinates>7.797399,46.021538,0</coordinates></Point>
</Placemark>
<Placemark>
    <name><![CDATA[Blauherd]]></name>
    <styleUrl>#gtfs_feature</styleUrl>
    <ExtendedData>
        <SchemaData schemaUrl="#gtfs_stops">
            <SimpleData name="stop_id">8530217</SimpleData>
            <SimpleData name="stop_name"><![CDATA[Blauherd]]></SimpleData>
        </SchemaData>
    </ExtendedData>
    <Point><coordinates>7.78585,46.016781,0</coordinates></Point>
</Placemark>
<Placemark>
    <name><![CDATA[Hannig]]></name>
    <styleUrl>#gtfs_feature</styleUrl>
    <ExtendedData>
        <SchemaData schemaUrl="#gtfs_stops">
            <SimpleData name="stop_id">8530226</SimpleData>
            <SimpleData name="stop_name"><![CDATA[Hannig]]></SimpleData>
        </SchemaData>
    </ExtendedData>
    <Point><coordinates>7.916767,46.114948,0</coordinates></Point>
</Placemark>
<Placemark>
    <name><![CDATA[Saas-Grund (Hohsaas Taltst.)]]></name>
    <styleUrl>#gtfs_feature</styleUrl>
    <ExtendedData>
        <SchemaData schemaUrl="#gtfs_stops">
            <SimpleData name="stop_id">8530227</SimpleData>
            <SimpleData name="stop_name"><![CDATA[Saas-Grund (Hohsaas Taltst.)]]></SimpleData>
        </SchemaData>
    </ExtendedData>
    <Point><coordinates>7.93854,46.128132,0</coordinates></Point>
</Placemark>
<Placemark>
    <name><![CDATA[Hohsaas]]></name>
    <styleUrl>#gtfs_feature</styleUrl>
    <ExtendedData>
        <SchemaData schemaUrl="#gtfs_stops">
            <SimpleData name="stop_id">8530228</SimpleData>
            <SimpleData name="stop_name"><![CDATA[Hohsaas]]></SimpleData>
        </SchemaData>
    </ExtendedData>
    <Point><coordinates>7.989093,46.140022,0</coordinates></Point>
</Placemark>
<Placemark>
    <name><![CDATA[Kreuzboden]]></name>
    <styleUrl>#gtfs_feature</styleUrl>
    <ExtendedData>
        <SchemaData schemaUrl="#gtfs_stops">
            <SimpleData name="stop_id">8530230</SimpleData>
            <SimpleData name="stop_name"><![CDATA[Kreuzboden]]></SimpleData>
        </SchemaData>
    </ExtendedData>
    <Point><coordinates>7.964309,46.138439,0</coordinates></Point>
</Placemark>
<Placemark>
    <name><![CDATA[Saas-Almagell (Furggstalden)]]></name>
    <styleUrl>#gtfs_feature</styleUrl>
    <ExtendedData>
        <SchemaData schemaUrl="#gtfs_stops">
            <SimpleData name="stop_id">8530231</SimpleData>
            <SimpleData name="stop_name"><![CDATA[Saas-Almagell (Furggstalden)]]></SimpleData>
        </SchemaData>
    </ExtendedData>
    <Point><coordinates>7.957852,46.092258,0</coordinates></Point>
</Placemark>
<Placemark>
    <name><![CDATA[Furggstalden (Saas-Almagell)]]></name>
    <styleUrl>#gtfs_feature</styleUrl>
    <ExtendedData>
        <SchemaData schemaUrl="#gtfs_stops">
            <SimpleData name="stop_id">8530232</SimpleData>
            <SimpleData name="stop_name"><![CDATA[Furggstalden (Saas-Almagell)]]></SimpleData>
        </SchemaData>
    </ExtendedData>
    <Point><coordinates>7.963413,46.089642,0</coordinates></Point>
</Placemark>
<Placemark>
    <name><![CDATA[Ried-Brig (Rosswald Talstat.)]]></name>
    <styleUrl>#gtfs_feature</styleUrl>
    <ExtendedData>
        <SchemaData schemaUrl="#gtfs_stops">
            <SimpleData name="stop_id">8530233</SimpleData>
            <SimpleData name="stop_name"><![CDATA[Ried-Brig (Rosswald Talstat.)]]></SimpleData>
        </SchemaData>
    </ExtendedData>
    <Point><coordinates>8.025878,46.313843,0</coordinates></Point>
</Placemark>
<Placemark>
    <name><![CDATA[Rosswald]]></name>
    <styleUrl>#gtfs_feature</styleUrl>
    <ExtendedData>
        <SchemaData schemaUrl="#gtfs_stops">
            <SimpleData name="stop_id">8530234</SimpleData>
            <SimpleData name="stop_name"><![CDATA[Rosswald]]></SimpleData>
        </SchemaData>
    </ExtendedData>
    <Point><coordinates>8.040936,46.304375,0</coordinates></Point>
</Placemark>
<Placemark>
    <name><![CDATA[Blatten b. Naters (Belalpbahn)]]></name>
    <styleUrl>#gtfs_feature</styleUrl>
    <ExtendedData>
        <SchemaData schemaUrl="#gtfs_stops">
            <SimpleData name="stop_id">8530235</SimpleData>
            <SimpleData name="stop_name"><![CDATA[Blatten b. Naters (Belalpbahn)]]></SimpleData>
        </SchemaData>
    </ExtendedData>
    <Point><coordinates>7.98428,46.358925,0</coordinates></Point>
</Placemark>
<Placemark>
    <name><![CDATA[Erich/Tschuggen]]></name>
    <styleUrl>#gtfs_feature</styleUrl>
    <ExtendedData>
        <SchemaData schemaUrl="#gtfs_stops">
            <SimpleData name="stop_id">8530236</SimpleData>
            <SimpleData name="stop_name"><![CDATA[Erich/Tschuggen]]></SimpleData>
        </SchemaData>
    </ExtendedData>
    <Point><coordinates>7.979765,46.364838,0</coordinates></Point>
</Placemark>
<Placemark>
    <name><![CDATA[Mörel (Riederalpbahn)]]></name>
    <styleUrl>#gtfs_feature</styleUrl>
    <ExtendedData>
        <SchemaData schemaUrl="#gtfs_stops">
            <SimpleData name="stop_id">8530237</SimpleData>
            <SimpleData name="stop_name"><![CDATA[Mörel (Riederalpbahn)]]></SimpleData>
        </SchemaData>
    </ExtendedData>
    <Point><coordinates>8.046011,46.356602,0</coordinates></Point>
</Placemark>
<Placemark>
    <name><![CDATA[Riederalp (Hohfluh)]]></name>
    <styleUrl>#gtfs_feature</styleUrl>
    <ExtendedData>
        <SchemaData schemaUrl="#gtfs_stops">
            <SimpleData name="stop_id">8530240</SimpleData>
            <SimpleData name="stop_name"><![CDATA[Riederalp (Hohfluh)]]></SimpleData>
        </SchemaData>
    </ExtendedData>
    <Point><coordinates>8.027023,46.377735,0</coordinates></Point>
</Placemark>
<Placemark>
    <name><![CDATA[Moosfluh]]></name>
    <styleUrl>#gtfs_feature</styleUrl>
    <ExtendedData>
        <SchemaData schemaUrl="#gtfs_stops">
            <SimpleData name="stop_id">8530241</SimpleData>
            <SimpleData name="stop_name"><![CDATA[Moosfluh]]></SimpleData>
        </SchemaData>
    </ExtendedData>
    <Point><coordinates>8.048218,46.395859,0</coordinates></Point>
</Placemark>
<Placemark>
    <name><![CDATA[Hohfluh (Riederalp)]]></name>
    <styleUrl>#gtfs_feature</styleUrl>
    <ExtendedData>
        <SchemaData schemaUrl="#gtfs_stops">
            <SimpleData name="stop_id">8530242</SimpleData>
            <SimpleData name="stop_name"><![CDATA[Hohfluh (Riederalp)]]></SimpleData>
        </SchemaData>
    </ExtendedData>
    <Point><coordinates>8.027842,46.386143,0</coordinates></Point>
</Placemark>
<Placemark>
    <name><![CDATA[Betten Talstation (Seilbahn)]]></name>
    <styleUrl>#gtfs_feature</styleUrl>
    <ExtendedData>
        <SchemaData schemaUrl="#gtfs_stops">
            <SimpleData name="stop_id">8530243</SimpleData>
            <SimpleData name="stop_name"><![CDATA[Betten Talstation (Seilbahn)]]></SimpleData>
        </SchemaData>
    </ExtendedData>
    <Point><coordinates>8.076794,46.371342,0</coordinates></Point>
</Placemark>
<Placemark>
    <name><![CDATA[Schönbiel (Bettmeralp)]]></name>
    <styleUrl>#gtfs_feature</styleUrl>
    <ExtendedData>
        <SchemaData schemaUrl="#gtfs_stops">
            <SimpleData name="stop_id">8530244</SimpleData>
            <SimpleData name="stop_name"><![CDATA[Schönbiel (Bettmeralp)]]></SimpleData>
        </SchemaData>
    </ExtendedData>
    <Point><coordinates>8.079216,46.403675,0</coordinates></Point>
</Placemark>
<Placemark>
    <name><![CDATA[Bettmergrat]]></name>
    <styleUrl>#gtfs_feature</styleUrl>
    <ExtendedData>
        <SchemaData schemaUrl="#gtfs_stops">
            <SimpleData name="stop_id">8530245</SimpleData>
            <SimpleData name="stop_name"><![CDATA[Bettmergrat]]></SimpleData>
        </SchemaData>
    </ExtendedData>
    <Point><coordinates>8.077122,46.410301,0</coordinates></Point>
</Placemark>
<Placemark>
    <name><![CDATA[Fürgangen (Talstation)]]></name>
    <styleUrl>#gtfs_feature</styleUrl>
    <ExtendedData>
        <SchemaData schemaUrl="#gtfs_stops">
            <SimpleData name="stop_id">8530250</SimpleData>
            <SimpleData name="stop_name"><![CDATA[Fürgangen (Talstation)]]></SimpleData>
        </SchemaData>
    </ExtendedData>
    <Point><coordinates>8.152316,46.411938,0</coordinates></Point>
</Placemark>
<Placemark>
    <name><![CDATA[Bellwald (Bergstation)]]></name>
    <styleUrl>#gtfs_feature</styleUrl>
    <ExtendedData>
        <SchemaData schemaUrl="#gtfs_stops">
            <SimpleData name="stop_id">8530251</SimpleData>
            <SimpleData name="stop_name"><![CDATA[Bellwald (Bergstation)]]></SimpleData>
        </SchemaData>
    </ExtendedData>
    <Point><coordinates>8.160657,46.423016,0</coordinates></Point>
</Placemark>
<Placemark>
    <name><![CDATA[Bellwald (Talstation Richinen)]]></name>
    <styleUrl>#gtfs_feature</styleUrl>
    <ExtendedData>
        <SchemaData schemaUrl="#gtfs_stops">
            <SimpleData name="stop_id">8530252</SimpleData>
            <SimpleData name="stop_name"><![CDATA[Bellwald (Talstation Richinen)]]></SimpleData>
        </SchemaData>
    </ExtendedData>
    <Point><coordinates>8.161293,46.427795,0</coordinates></Point>
</Placemark>
<Placemark>
    <name><![CDATA[Richinen]]></name>
    <styleUrl>#gtfs_feature</styleUrl>
    <ExtendedData>
        <SchemaData schemaUrl="#gtfs_stops">
            <SimpleData name="stop_id">8530253</SimpleData>
            <SimpleData name="stop_name"><![CDATA[Richinen]]></SimpleData>
        </SchemaData>
    </ExtendedData>
    <Point><coordinates>8.166796,46.44138,0</coordinates></Point>
</Placemark>
<Placemark>
    <name><![CDATA[Furggulti]]></name>
    <styleUrl>#gtfs_feature</styleUrl>
    <ExtendedData>
        <SchemaData schemaUrl="#gtfs_stops">
            <SimpleData name="stop_id">8530254</SimpleData>
            <SimpleData name="stop_name"><![CDATA[Furggulti]]></SimpleData>
        </SchemaData>
    </ExtendedData>
    <Point><coordinates>8.162959,46.453209,0</coordinates></Point>
</Placemark>
<Placemark>
    <name><![CDATA[Lenk (Talstation Leiterli)]]></name>
    <styleUrl>#gtfs_feature</styleUrl>
    <ExtendedData>
        <SchemaData schemaUrl="#gtfs_stops">
            <SimpleData name="stop_id">8530268</SimpleData>
            <SimpleData name="stop_name"><![CDATA[Lenk (Talstation Leiterli)]]></SimpleData>
        </SchemaData>
    </ExtendedData>
    <Point><coordinates>7.437014,46.453014,0</coordinates></Point>
</Placemark>
<Placemark>
    <name><![CDATA[Leiterli (Bergstation)]]></name>
    <styleUrl>#gtfs_feature</styleUrl>
    <ExtendedData>
        <SchemaData schemaUrl="#gtfs_stops">
            <SimpleData name="stop_id">8530270</SimpleData>
            <SimpleData name="stop_name"><![CDATA[Leiterli (Bergstation)]]></SimpleData>
        </SchemaData>
    </ExtendedData>
    <Point><coordinates>7.40894,46.428875,0</coordinates></Point>
</Placemark>
<Placemark>
    <name><![CDATA[Lenk (Talstation Metschstand)]]></name>
    <styleUrl>#gtfs_feature</styleUrl>
    <ExtendedData>
        <SchemaData schemaUrl="#gtfs_stops">
            <SimpleData name="stop_id">8530277</SimpleData>
            <SimpleData name="stop_name"><![CDATA[Lenk (Talstation Metschstand)]]></SimpleData>
        </SchemaData>
    </ExtendedData>
    <Point><coordinates>7.457041,46.442039,0</coordinates></Point>
</Placemark>
<Placemark>
    <name><![CDATA[Schönried (Talst. Horneggli)]]></name>
    <styleUrl>#gtfs_feature</styleUrl>
    <ExtendedData>
        <SchemaData schemaUrl="#gtfs_stops">
            <SimpleData name="stop_id">8530283</SimpleData>
            <SimpleData name="stop_name"><![CDATA[Schönried (Talst. Horneggli)]]></SimpleData>
        </SchemaData>
    </ExtendedData>
    <Point><coordinates>7.293109,46.503574,0</coordinates></Point>
</Placemark>
<Placemark>
    <name><![CDATA[Horneggli]]></name>
    <styleUrl>#gtfs_feature</styleUrl>
    <ExtendedData>
        <SchemaData schemaUrl="#gtfs_stops">
            <SimpleData name="stop_id">8530284</SimpleData>
            <SimpleData name="stop_name"><![CDATA[Horneggli]]></SimpleData>
        </SchemaData>
    </ExtendedData>
    <Point><coordinates>7.313559,46.493614,0</coordinates></Point>
</Placemark>
<Placemark>
    <name><![CDATA[Gstaad (Talstation Wispile)]]></name>
    <styleUrl>#gtfs_feature</styleUrl>
    <ExtendedData>
        <SchemaData schemaUrl="#gtfs_stops">
            <SimpleData name="stop_id">8530288</SimpleData>
            <SimpleData name="stop_name"><![CDATA[Gstaad (Talstation Wispile)]]></SimpleData>
        </SchemaData>
    </ExtendedData>
    <Point><coordinates>7.284859,46.463638,0</coordinates></Point>
</Placemark>
<Placemark>
    <name><![CDATA[Höhi Wispile]]></name>
    <styleUrl>#gtfs_feature</styleUrl>
    <ExtendedData>
        <SchemaData schemaUrl="#gtfs_stops">
            <SimpleData name="stop_id">8530290</SimpleData>
            <SimpleData name="stop_name"><![CDATA[Höhi Wispile]]></SimpleData>
        </SchemaData>
    </ExtendedData>
    <Point><coordinates>7.292578,46.440163,0</coordinates></Point>
</Placemark>
<Placemark>
    <name><![CDATA[Oldenegg]]></name>
    <styleUrl>#gtfs_feature</styleUrl>
    <ExtendedData>
        <SchemaData schemaUrl="#gtfs_stops">
            <SimpleData name="stop_id">8530297</SimpleData>
            <SimpleData name="stop_name"><![CDATA[Oldenegg]]></SimpleData>
        </SchemaData>
    </ExtendedData>
    <Point><coordinates>7.238152,46.351437,0</coordinates></Point>
</Placemark>
<Placemark>
    <name><![CDATA[Kiental SKRa]]></name>
    <styleUrl>#gtfs_feature</styleUrl>
    <ExtendedData>
        <SchemaData schemaUrl="#gtfs_stops">
            <SimpleData name="stop_id">8530298</SimpleData>
            <SimpleData name="stop_name"><![CDATA[Kiental SKRa]]></SimpleData>
        </SchemaData>
    </ExtendedData>
    <Point><coordinates>7.723513,46.585499,0</coordinates></Point>
</Placemark>
<Placemark>
    <name><![CDATA[Ramslauenen]]></name>
    <styleUrl>#gtfs_feature</styleUrl>
    <ExtendedData>
        <SchemaData schemaUrl="#gtfs_stops">
            <SimpleData name="stop_id">8530299</SimpleData>
            <SimpleData name="stop_name"><![CDATA[Ramslauenen]]></SimpleData>
        </SchemaData>
    </ExtendedData>
    <Point><coordinates>7.708362,46.579632,0</coordinates></Point>
</Placemark>
<Placemark>
    <name><![CDATA[Kandersteg (Luftseilbahn)]]></name>
    <styleUrl>#gtfs_feature</styleUrl>
    <ExtendedData>
        <SchemaData schemaUrl="#gtfs_stops">
            <SimpleData name="stop_id">8530301</SimpleData>
            <SimpleData name="stop_name"><![CDATA[Kandersteg (Luftseilbahn)]]></SimpleData>
        </SchemaData>
    </ExtendedData>
    <Point><coordinates>7.661066,46.489231,0</coordinates></Point>
</Placemark>
<Placemark>
    <name><![CDATA[Allmenalp]]></name>
    <styleUrl>#gtfs_feature</styleUrl>
    <ExtendedData>
        <SchemaData schemaUrl="#gtfs_stops">
            <SimpleData name="stop_id">8530302</SimpleData>
            <SimpleData name="stop_name"><![CDATA[Allmenalp]]></SimpleData>
        </SchemaData>
    </ExtendedData>
    <Point><coordinates>7.649447,46.49229,0</coordinates></Point>
</Placemark>
<Placemark>
    <name><![CDATA[Elsigbach (Talstation)]]></name>
    <styleUrl>#gtfs_feature</styleUrl>
    <ExtendedData>
        <SchemaData schemaUrl="#gtfs_stops">
            <SimpleData name="stop_id">8530304</SimpleData>
            <SimpleData name="stop_name"><![CDATA[Elsigbach (Talstation)]]></SimpleData>
        </SchemaData>
    </ExtendedData>
    <Point><coordinates>7.606474,46.529095,0</coordinates></Point>
</Placemark>
<Placemark>
    <name><![CDATA[Elsigenalp]]></name>
    <styleUrl>#gtfs_feature</styleUrl>
    <ExtendedData>
        <SchemaData schemaUrl="#gtfs_stops">
            <SimpleData name="stop_id">8530305</SimpleData>
            <SimpleData name="stop_name"><![CDATA[Elsigenalp]]></SimpleData>
        </SchemaData>
    </ExtendedData>
    <Point><coordinates>7.622496,46.522545,0</coordinates></Point>
</Placemark>
<Placemark>
    <name><![CDATA[Adelboden Dorf (Silleren)]]></name>
    <styleUrl>#gtfs_feature</styleUrl>
    <ExtendedData>
        <SchemaData schemaUrl="#gtfs_stops">
            <SimpleData name="stop_id">8530308</SimpleData>
            <SimpleData name="stop_name"><![CDATA[Adelboden Dorf (Silleren)]]></SimpleData>
        </SchemaData>
    </ExtendedData>
    <Point><coordinates>7.556641,46.490368,0</coordinates></Point>
</Placemark>
<Placemark>
    <name><![CDATA[Adelboden Oey (Sillerenbahn)]]></name>
    <styleUrl>#gtfs_feature</styleUrl>
    <ExtendedData>
        <SchemaData schemaUrl="#gtfs_stops">
            <SimpleData name="stop_id">8530309</SimpleData>
            <SimpleData name="stop_name"><![CDATA[Adelboden Oey (Sillerenbahn)]]></SimpleData>
        </SchemaData>
    </ExtendedData>
    <Point><coordinates>7.560425,46.487888,0</coordinates></Point>
</Placemark>
<Placemark>
    <name><![CDATA[Sillerenbühl]]></name>
    <styleUrl>#gtfs_feature</styleUrl>
    <ExtendedData>
        <SchemaData schemaUrl="#gtfs_stops">
            <SimpleData name="stop_id">8530311</SimpleData>
            <SimpleData name="stop_name"><![CDATA[Sillerenbühl]]></SimpleData>
        </SchemaData>
    </ExtendedData>
    <Point><coordinates>7.518075,46.471786,0</coordinates></Point>
</Placemark>
<Placemark>
    <name><![CDATA[Unter dem Birg (Talstation)]]></name>
    <styleUrl>#gtfs_feature</styleUrl>
    <ExtendedData>
        <SchemaData schemaUrl="#gtfs_stops">
            <SimpleData name="stop_id">8530312</SimpleData>
            <SimpleData name="stop_name"><![CDATA[Unter dem Birg (Talstation)]]></SimpleData>
        </SchemaData>
    </ExtendedData>
    <Point><coordinates>7.566427,46.459141,0</coordinates></Point>
</Placemark>
<Placemark>
    <name><![CDATA[Engstligenalp]]></name>
    <styleUrl>#gtfs_feature</styleUrl>
    <ExtendedData>
        <SchemaData schemaUrl="#gtfs_stops">
            <SimpleData name="stop_id">8530313</SimpleData>
            <SimpleData name="stop_name"><![CDATA[Engstligenalp]]></SimpleData>
        </SchemaData>
    </ExtendedData>
    <Point><coordinates>7.565142,46.449402,0</coordinates></Point>
</Placemark>
<Placemark>
    <name><![CDATA[Adelboden Geils (Hahnenmoos)]]></name>
    <styleUrl>#gtfs_feature</styleUrl>
    <ExtendedData>
        <SchemaData schemaUrl="#gtfs_stops">
            <SimpleData name="stop_id">8530314</SimpleData>
            <SimpleData name="stop_name"><![CDATA[Adelboden Geils (Hahnenmoos)]]></SimpleData>
        </SchemaData>
    </ExtendedData>
    <Point><coordinates>7.512729,46.456959,0</coordinates></Point>
</Placemark>
<Placemark>
    <name><![CDATA[Hahnenmoos]]></name>
    <styleUrl>#gtfs_feature</styleUrl>
    <ExtendedData>
        <SchemaData schemaUrl="#gtfs_stops">
            <SimpleData name="stop_id">8530315</SimpleData>
            <SimpleData name="stop_name"><![CDATA[Hahnenmoos]]></SimpleData>
        </SchemaData>
    </ExtendedData>
    <Point><coordinates>7.495427,46.453335,0</coordinates></Point>
</Placemark>
<Placemark>
    <name><![CDATA[Grindelwald (Pfingsteggbahn)]]></name>
    <styleUrl>#gtfs_feature</styleUrl>
    <ExtendedData>
        <SchemaData schemaUrl="#gtfs_stops">
            <SimpleData name="stop_id">8530320</SimpleData>
            <SimpleData name="stop_name"><![CDATA[Grindelwald (Pfingsteggbahn)]]></SimpleData>
        </SchemaData>
    </ExtendedData>
    <Point><coordinates>8.046927,46.623173,0</coordinates></Point>
</Placemark>
<Placemark>
    <name><![CDATA[Pfingstegg]]></name>
    <styleUrl>#gtfs_feature</styleUrl>
    <ExtendedData>
        <SchemaData schemaUrl="#gtfs_stops">
            <SimpleData name="stop_id">8530321</SimpleData>
            <SimpleData name="stop_name"><![CDATA[Pfingstegg]]></SimpleData>
        </SchemaData>
    </ExtendedData>
    <Point><coordinates>8.056445,46.617382,0</coordinates></Point>
</Placemark>
<Placemark>
    <name><![CDATA[Meiringen (Luftseilbahn)]]></name>
    <styleUrl>#gtfs_feature</styleUrl>
    <ExtendedData>
        <SchemaData schemaUrl="#gtfs_stops">
            <SimpleData name="stop_id">8530343</SimpleData>
            <SimpleData name="stop_name"><![CDATA[Meiringen (Luftseilbahn)]]></SimpleData>
        </SchemaData>
    </ExtendedData>
    <Point><coordinates>8.192109,46.72834,0</coordinates></Point>
</Placemark>
<Placemark>
    <name><![CDATA[Hasliberg Reuti (Gondelbahn)]]></name>
    <styleUrl>#gtfs_feature</styleUrl>
    <ExtendedData>
        <SchemaData schemaUrl="#gtfs_stops">
            <SimpleData name="stop_id">8530344</SimpleData>
            <SimpleData name="stop_name"><![CDATA[Hasliberg Reuti (Gondelbahn)]]></SimpleData>
        </SchemaData>
    </ExtendedData>
    <Point><coordinates>8.209,46.733032,0</coordinates></Point>
</Placemark>
<Placemark>
    <name><![CDATA[Marbach (Talstation)]]></name>
    <styleUrl>#gtfs_feature</styleUrl>
    <ExtendedData>
        <SchemaData schemaUrl="#gtfs_stops">
            <SimpleData name="stop_id">8530351</SimpleData>
            <SimpleData name="stop_name"><![CDATA[Marbach (Talstation)]]></SimpleData>
        </SchemaData>
    </ExtendedData>
    <Point><coordinates>7.895557,46.850037,0</coordinates></Point>
</Placemark>
<Placemark>
    <name><![CDATA[Marbachegg]]></name>
    <styleUrl>#gtfs_feature</styleUrl>
    <ExtendedData>
        <SchemaData schemaUrl="#gtfs_stops">
            <SimpleData name="stop_id">8530352</SimpleData>
            <SimpleData name="stop_name"><![CDATA[Marbachegg]]></SimpleData>
        </SchemaData>
    </ExtendedData>
    <Point><coordinates>7.906049,46.835217,0</coordinates></Point>
</Placemark>
<Placemark>
    <name><![CDATA[Sörenberg (Talst. Rossweid)]]></name>
    <styleUrl>#gtfs_feature</styleUrl>
    <ExtendedData>
        <SchemaData schemaUrl="#gtfs_stops">
            <SimpleData name="stop_id">8530353</SimpleData>
            <SimpleData name="stop_name"><![CDATA[Sörenberg (Talst. Rossweid)]]></SimpleData>
        </SchemaData>
    </ExtendedData>
    <Point><coordinates>8.033941,46.820644,0</coordinates></Point>
</Placemark>
<Placemark>
    <name><![CDATA[Rossweid]]></name>
    <styleUrl>#gtfs_feature</styleUrl>
    <ExtendedData>
        <SchemaData schemaUrl="#gtfs_stops">
            <SimpleData name="stop_id">8530354</SimpleData>
            <SimpleData name="stop_name"><![CDATA[Rossweid]]></SimpleData>
        </SchemaData>
    </ExtendedData>
    <Point><coordinates>8.027168,46.80883,0</coordinates></Point>
</Placemark>
<Placemark>
    <name><![CDATA[Distelboden (Talst. Bonistock)]]></name>
    <styleUrl>#gtfs_feature</styleUrl>
    <ExtendedData>
        <SchemaData schemaUrl="#gtfs_stops">
            <SimpleData name="stop_id">8530364</SimpleData>
            <SimpleData name="stop_name"><![CDATA[Distelboden (Talst. Bonistock)]]></SimpleData>
        </SchemaData>
    </ExtendedData>
    <Point><coordinates>8.281377,46.771393,0</coordinates></Point>
</Placemark>
<Placemark>
    <name><![CDATA[Bonistock (Distelboden)]]></name>
    <styleUrl>#gtfs_feature</styleUrl>
    <ExtendedData>
        <SchemaData schemaUrl="#gtfs_stops">
            <SimpleData name="stop_id">8530365</SimpleData>
            <SimpleData name="stop_name"><![CDATA[Bonistock (Distelboden)]]></SimpleData>
        </SchemaData>
    </ExtendedData>
    <Point><coordinates>8.290027,46.777794,0</coordinates></Point>
</Placemark>
<Placemark>
    <name><![CDATA[Fell]]></name>
    <styleUrl>#gtfs_feature</styleUrl>
    <ExtendedData>
        <SchemaData schemaUrl="#gtfs_stops">
            <SimpleData name="stop_id">8530374</SimpleData>
            <SimpleData name="stop_name"><![CDATA[Fell]]></SimpleData>
        </SchemaData>
    </ExtendedData>
    <Point><coordinates>8.421407,46.883381,0</coordinates></Point>
</Placemark>
<Placemark>
    <name><![CDATA[Chrüzhütte]]></name>
    <styleUrl>#gtfs_feature</styleUrl>
    <ExtendedData>
        <SchemaData schemaUrl="#gtfs_stops">
            <SimpleData name="stop_id">8530375</SimpleData>
            <SimpleData name="stop_name"><![CDATA[Chrüzhütte]]></SimpleData>
        </SchemaData>
    </ExtendedData>
    <Point><coordinates>8.43535,46.871826,0</coordinates></Point>
</Placemark>
<Placemark>
    <name><![CDATA[Fellboden]]></name>
    <styleUrl>#gtfs_feature</styleUrl>
    <ExtendedData>
        <SchemaData schemaUrl="#gtfs_stops">
            <SimpleData name="stop_id">8530376</SimpleData>
            <SimpleData name="stop_name"><![CDATA[Fellboden]]></SimpleData>
        </SchemaData>
    </ExtendedData>
    <Point><coordinates>8.421512,46.881973,0</coordinates></Point>
</Placemark>
<Placemark>
    <name><![CDATA[Bannalpsee]]></name>
    <styleUrl>#gtfs_feature</styleUrl>
    <ExtendedData>
        <SchemaData schemaUrl="#gtfs_stops">
            <SimpleData name="stop_id">8530377</SimpleData>
            <SimpleData name="stop_name"><![CDATA[Bannalpsee]]></SimpleData>
        </SchemaData>
    </ExtendedData>
    <Point><coordinates>8.425468,46.870186,0</coordinates></Point>
</Placemark>
<Placemark>
    <name><![CDATA[Emmetten (Niederbauenbahn)]]></name>
    <styleUrl>#gtfs_feature</styleUrl>
    <ExtendedData>
        <SchemaData schemaUrl="#gtfs_stops">
            <SimpleData name="stop_id">8530385</SimpleData>
            <SimpleData name="stop_name"><![CDATA[Emmetten (Niederbauenbahn)]]></SimpleData>
        </SchemaData>
    </ExtendedData>
    <Point><coordinates>8.519011,46.955879,0</coordinates></Point>
</Placemark>
<Placemark>
    <name><![CDATA[Niederbauen]]></name>
    <styleUrl>#gtfs_feature</styleUrl>
    <ExtendedData>
        <SchemaData schemaUrl="#gtfs_stops">
            <SimpleData name="stop_id">8530386</SimpleData>
            <SimpleData name="stop_name"><![CDATA[Niederbauen]]></SimpleData>
        </SchemaData>
    </ExtendedData>
    <Point><coordinates>8.53486,46.946384,0</coordinates></Point>
</Placemark>
<Placemark>
    <name><![CDATA[Stoos(Sesselbahn Fronalpstock)]]></name>
    <styleUrl>#gtfs_feature</styleUrl>
    <ExtendedData>
        <SchemaData schemaUrl="#gtfs_stops">
            <SimpleData name="stop_id">8530391</SimpleData>
            <SimpleData name="stop_name"><![CDATA[Stoos(Sesselbahn Fronalpstock)]]></SimpleData>
        </SchemaData>
    </ExtendedData>
    <Point><coordinates>8.662616,46.980618,0</coordinates></Point>
</Placemark>
<Placemark>
    <name><![CDATA[Fronalpstock]]></name>
    <styleUrl>#gtfs_feature</styleUrl>
    <ExtendedData>
        <SchemaData schemaUrl="#gtfs_stops">
            <SimpleData name="stop_id">8530392</SimpleData>
            <SimpleData name="stop_name"><![CDATA[Fronalpstock]]></SimpleData>
        </SchemaData>
    </ExtendedData>
    <Point><coordinates>8.637408,46.969593,0</coordinates></Point>
</Placemark>
<Placemark>
    <name><![CDATA[Stoos Bergstat. (Luftseilb)]]></name>
    <styleUrl>#gtfs_feature</styleUrl>
    <ExtendedData>
        <SchemaData schemaUrl="#gtfs_stops">
            <SimpleData name="stop_id">8530393</SimpleData>
            <SimpleData name="stop_name"><![CDATA[Stoos Bergstat. (Luftseilb)]]></SimpleData>
        </SchemaData>
    </ExtendedData>
    <Point><coordinates>8.664164,46.982182,0</coordinates></Point>
</Placemark>
<Placemark>
    <name><![CDATA[Ried (Muotathal) (Seilbahn)]]></name>
    <styleUrl>#gtfs_feature</styleUrl>
    <ExtendedData>
        <SchemaData schemaUrl="#gtfs_stops">
            <SimpleData name="stop_id">8530400</SimpleData>
            <SimpleData name="stop_name"><![CDATA[Ried (Muotathal) (Seilbahn)]]></SimpleData>
        </SchemaData>
    </ExtendedData>
    <Point><coordinates>8.724245,46.984097,0</coordinates></Point>
</Placemark>
<Placemark>
    <name><![CDATA[Illgau (Luftseilbahn)]]></name>
    <styleUrl>#gtfs_feature</styleUrl>
    <ExtendedData>
        <SchemaData schemaUrl="#gtfs_stops">
            <SimpleData name="stop_id">8530401</SimpleData>
            <SimpleData name="stop_name"><![CDATA[Illgau (Luftseilbahn)]]></SimpleData>
        </SchemaData>
    </ExtendedData>
    <Point><coordinates>8.723642,46.986919,0</coordinates></Point>
</Placemark>
<Placemark>
    <name><![CDATA[Brunni SZ (Talstation Holzegg)]]></name>
    <styleUrl>#gtfs_feature</styleUrl>
    <ExtendedData>
        <SchemaData schemaUrl="#gtfs_stops">
            <SimpleData name="stop_id">8530402</SimpleData>
            <SimpleData name="stop_name"><![CDATA[Brunni SZ (Talstation Holzegg)]]></SimpleData>
        </SchemaData>
    </ExtendedData>
    <Point><coordinates>8.703089,47.042,0</coordinates></Point>
</Placemark>
<Placemark>
    <name><![CDATA[Holzegg]]></name>
    <styleUrl>#gtfs_feature</styleUrl>
    <ExtendedData>
        <SchemaData schemaUrl="#gtfs_stops">
            <SimpleData name="stop_id">8530403</SimpleData>
            <SimpleData name="stop_name"><![CDATA[Holzegg]]></SimpleData>
        </SchemaData>
    </ExtendedData>
    <Point><coordinates>8.698384,47.028835,0</coordinates></Point>
</Placemark>
<Placemark>
    <name><![CDATA[Oberiberg (Talstation)]]></name>
    <styleUrl>#gtfs_feature</styleUrl>
    <ExtendedData>
        <SchemaData schemaUrl="#gtfs_stops">
            <SimpleData name="stop_id">8530404</SimpleData>
            <SimpleData name="stop_name"><![CDATA[Oberiberg (Talstation)]]></SimpleData>
        </SchemaData>
    </ExtendedData>
    <Point><coordinates>8.772017,47.03384,0</coordinates></Point>
</Placemark>
<Placemark>
    <name><![CDATA[Steinboden]]></name>
    <styleUrl>#gtfs_feature</styleUrl>
    <ExtendedData>
        <SchemaData schemaUrl="#gtfs_stops">
            <SimpleData name="stop_id">8530405</SimpleData>
            <SimpleData name="stop_name"><![CDATA[Steinboden]]></SimpleData>
        </SchemaData>
    </ExtendedData>
    <Point><coordinates>8.771065,47.014572,0</coordinates></Point>
</Placemark>
<Placemark>
    <name><![CDATA[Unteriberg Weglosen (Talst.)]]></name>
    <styleUrl>#gtfs_feature</styleUrl>
    <ExtendedData>
        <SchemaData schemaUrl="#gtfs_stops">
            <SimpleData name="stop_id">8530406</SimpleData>
            <SimpleData name="stop_name"><![CDATA[Unteriberg Weglosen (Talst.)]]></SimpleData>
        </SchemaData>
    </ExtendedData>
    <Point><coordinates>8.808958,47.020138,0</coordinates></Point>
</Placemark>
<Placemark>
    <name><![CDATA[Hoch-Ybrig Seebli (Kl.Sternen)]]></name>
    <styleUrl>#gtfs_feature</styleUrl>
    <ExtendedData>
        <SchemaData schemaUrl="#gtfs_stops">
            <SimpleData name="stop_id">8530407</SimpleData>
            <SimpleData name="stop_name"><![CDATA[Hoch-Ybrig Seebli (Kl.Sternen)]]></SimpleData>
        </SchemaData>
    </ExtendedData>
    <Point><coordinates>8.789246,47.01104,0</coordinates></Point>
</Placemark>
<Placemark>
    <name><![CDATA[Klein Sternen]]></name>
    <styleUrl>#gtfs_feature</styleUrl>
    <ExtendedData>
        <SchemaData schemaUrl="#gtfs_stops">
            <SimpleData name="stop_id">8530408</SimpleData>
            <SimpleData name="stop_name"><![CDATA[Klein Sternen]]></SimpleData>
        </SchemaData>
    </ExtendedData>
    <Point><coordinates>8.797868,46.999908,0</coordinates></Point>
</Placemark>
<Placemark>
    <name><![CDATA[Sattel (Talstat. Hochstuckli)]]></name>
    <styleUrl>#gtfs_feature</styleUrl>
    <ExtendedData>
        <SchemaData schemaUrl="#gtfs_stops">
            <SimpleData name="stop_id">8530411</SimpleData>
            <SimpleData name="stop_name"><![CDATA[Sattel (Talstat. Hochstuckli)]]></SimpleData>
        </SchemaData>
    </ExtendedData>
    <Point><coordinates>8.634376,47.078403,0</coordinates></Point>
</Placemark>
<Placemark>
    <name><![CDATA[Sattel Mostelberg (Bergstat.)]]></name>
    <styleUrl>#gtfs_feature</styleUrl>
    <ExtendedData>
        <SchemaData schemaUrl="#gtfs_stops">
            <SimpleData name="stop_id">8530412</SimpleData>
            <SimpleData name="stop_name"><![CDATA[Sattel Mostelberg (Bergstat.)]]></SimpleData>
        </SchemaData>
    </ExtendedData>
    <Point><coordinates>8.649866,47.067467,0</coordinates></Point>
</Placemark>
<Placemark>
    <name><![CDATA[Flüelen (Talstation Eggberge)]]></name>
    <styleUrl>#gtfs_feature</styleUrl>
    <ExtendedData>
        <SchemaData schemaUrl="#gtfs_stops">
            <SimpleData name="stop_id">8530418</SimpleData>
            <SimpleData name="stop_name"><![CDATA[Flüelen (Talstation Eggberge)]]></SimpleData>
        </SchemaData>
    </ExtendedData>
    <Point><coordinates>8.62756,46.893478,0</coordinates></Point>
</Placemark>
<Placemark>
    <name><![CDATA[Eggberge]]></name>
    <styleUrl>#gtfs_feature</styleUrl>
    <ExtendedData>
        <SchemaData schemaUrl="#gtfs_stops">
            <SimpleData name="stop_id">8530420</SimpleData>
            <SimpleData name="stop_name"><![CDATA[Eggberge]]></SimpleData>
        </SchemaData>
    </ExtendedData>
    <Point><coordinates>8.64444,46.9016,0</coordinates></Point>
</Placemark>
<Placemark>
    <name><![CDATA[Brügg (Bürglen UR) (Seilbahn)]]></name>
    <styleUrl>#gtfs_feature</styleUrl>
    <ExtendedData>
        <SchemaData schemaUrl="#gtfs_stops">
            <SimpleData name="stop_id">8530421</SimpleData>
            <SimpleData name="stop_name"><![CDATA[Brügg (Bürglen UR) (Seilbahn)]]></SimpleData>
        </SchemaData>
    </ExtendedData>
    <Point><coordinates>8.682055,46.877209,0</coordinates></Point>
</Placemark>
<Placemark>
    <name><![CDATA[Biel (Kinzig)]]></name>
    <styleUrl>#gtfs_feature</styleUrl>
    <ExtendedData>
        <SchemaData schemaUrl="#gtfs_stops">
            <SimpleData name="stop_id">8530423</SimpleData>
            <SimpleData name="stop_name"><![CDATA[Biel (Kinzig)]]></SimpleData>
        </SchemaData>
    </ExtendedData>
    <Point><coordinates>8.708868,46.895367,0</coordinates></Point>
</Placemark>
<Placemark>
    <name><![CDATA[Schattdorf (Talstation Haldi)]]></name>
    <styleUrl>#gtfs_feature</styleUrl>
    <ExtendedData>
        <SchemaData schemaUrl="#gtfs_stops">
            <SimpleData name="stop_id">8530424</SimpleData>
            <SimpleData name="stop_name"><![CDATA[Schattdorf (Talstation Haldi)]]></SimpleData>
        </SchemaData>
    </ExtendedData>
    <Point><coordinates>8.655653,46.865376,0</coordinates></Point>
</Placemark>
<Placemark>
    <name><![CDATA[Haldi]]></name>
    <styleUrl>#gtfs_feature</styleUrl>
    <ExtendedData>
        <SchemaData schemaUrl="#gtfs_stops">
            <SimpleData name="stop_id">8530425</SimpleData>
            <SimpleData name="stop_name"><![CDATA[Haldi]]></SimpleData>
        </SchemaData>
    </ExtendedData>
    <Point><coordinates>8.670334,46.864353,0</coordinates></Point>
</Placemark>
<Placemark>
    <name><![CDATA[Bristen (Talstation)]]></name>
    <styleUrl>#gtfs_feature</styleUrl>
    <ExtendedData>
        <SchemaData schemaUrl="#gtfs_stops">
            <SimpleData name="stop_id">8530426</SimpleData>
            <SimpleData name="stop_name"><![CDATA[Bristen (Talstation)]]></SimpleData>
        </SchemaData>
    </ExtendedData>
    <Point><coordinates>8.711514,46.766525,0</coordinates></Point>
</Placemark>
<Placemark>
    <name><![CDATA[Golzern (Bergstation)]]></name>
    <styleUrl>#gtfs_feature</styleUrl>
    <ExtendedData>
        <SchemaData schemaUrl="#gtfs_stops">
            <SimpleData name="stop_id">8530427</SimpleData>
            <SimpleData name="stop_name"><![CDATA[Golzern (Bergstation)]]></SimpleData>
        </SchemaData>
    </ExtendedData>
    <Point><coordinates>8.721351,46.774952,0</coordinates></Point>
</Placemark>
<Placemark>
    <name><![CDATA[S. Carlo (Bavona) Funivia]]></name>
    <styleUrl>#gtfs_feature</styleUrl>
    <ExtendedData>
        <SchemaData schemaUrl="#gtfs_stops">
            <SimpleData name="stop_id">8530457</SimpleData>
            <SimpleData name="stop_name"><![CDATA[S. Carlo (Bavona) Funivia]]></SimpleData>
        </SchemaData>
    </ExtendedData>
    <Point><coordinates>8.529776,46.410042,0</coordinates></Point>
</Placemark>
<Placemark>
    <name><![CDATA[Robiei]]></name>
    <styleUrl>#gtfs_feature</styleUrl>
    <ExtendedData>
        <SchemaData schemaUrl="#gtfs_stops">
            <SimpleData name="stop_id">8530458</SimpleData>
            <SimpleData name="stop_name"><![CDATA[Robiei]]></SimpleData>
        </SchemaData>
    </ExtendedData>
    <Point><coordinates>8.512392,46.443207,0</coordinates></Point>
</Placemark>
<Placemark>
    <name><![CDATA[Rietbach]]></name>
    <styleUrl>#gtfs_feature</styleUrl>
    <ExtendedData>
        <SchemaData schemaUrl="#gtfs_stops">
            <SimpleData name="stop_id">8530483</SimpleData>
            <SimpleData name="stop_name"><![CDATA[Rietbach]]></SimpleData>
        </SchemaData>
    </ExtendedData>
    <Point><coordinates>9.153236,47.228718,0</coordinates></Point>
</Placemark>
<Placemark>
    <name><![CDATA[Alt St. Johann (Sellamattbahn)]]></name>
    <styleUrl>#gtfs_feature</styleUrl>
    <ExtendedData>
        <SchemaData schemaUrl="#gtfs_stops">
            <SimpleData name="stop_id">8530484</SimpleData>
            <SimpleData name="stop_name"><![CDATA[Alt St. Johann (Sellamattbahn)]]></SimpleData>
        </SchemaData>
    </ExtendedData>
    <Point><coordinates>9.288858,47.193356,0</coordinates></Point>
</Placemark>
<Placemark>
    <name><![CDATA[Alp Sellamatt]]></name>
    <styleUrl>#gtfs_feature</styleUrl>
    <ExtendedData>
        <SchemaData schemaUrl="#gtfs_stops">
            <SimpleData name="stop_id">8530485</SimpleData>
            <SimpleData name="stop_name"><![CDATA[Alp Sellamatt]]></SimpleData>
        </SchemaData>
    </ExtendedData>
    <Point><coordinates>9.296335,47.182152,0</coordinates></Point>
</Placemark>
<Placemark>
    <name><![CDATA[Wildhaus Thur (Talstation)]]></name>
    <styleUrl>#gtfs_feature</styleUrl>
    <ExtendedData>
        <SchemaData schemaUrl="#gtfs_stops">
            <SimpleData name="stop_id">8530486</SimpleData>
            <SimpleData name="stop_name"><![CDATA[Wildhaus Thur (Talstation)]]></SimpleData>
        </SchemaData>
    </ExtendedData>
    <Point><coordinates>9.342262,47.19891,0</coordinates></Point>
</Placemark>
<Placemark>
    <name><![CDATA[Wildhaus Oberdorf (Bergstat.)]]></name>
    <styleUrl>#gtfs_feature</styleUrl>
    <ExtendedData>
        <SchemaData schemaUrl="#gtfs_stops">
            <SimpleData name="stop_id">8530487</SimpleData>
            <SimpleData name="stop_name"><![CDATA[Wildhaus Oberdorf (Bergstat.)]]></SimpleData>
        </SchemaData>
    </ExtendedData>
    <Point><coordinates>9.345074,47.192249,0</coordinates></Point>
</Placemark>
<Placemark>
    <name><![CDATA[Gamsalp]]></name>
    <styleUrl>#gtfs_feature</styleUrl>
    <ExtendedData>
        <SchemaData schemaUrl="#gtfs_stops">
            <SimpleData name="stop_id">8530488</SimpleData>
            <SimpleData name="stop_name"><![CDATA[Gamsalp]]></SimpleData>
        </SchemaData>
    </ExtendedData>
    <Point><coordinates>9.339443,47.172691,0</coordinates></Point>
</Placemark>
<Placemark>
    <name><![CDATA[Wildhaus (Talstation Gamplüt)]]></name>
    <styleUrl>#gtfs_feature</styleUrl>
    <ExtendedData>
        <SchemaData schemaUrl="#gtfs_stops">
            <SimpleData name="stop_id">8530489</SimpleData>
            <SimpleData name="stop_name"><![CDATA[Wildhaus (Talstation Gamplüt)]]></SimpleData>
        </SchemaData>
    </ExtendedData>
    <Point><coordinates>9.356855,47.207512,0</coordinates></Point>
</Placemark>
<Placemark>
    <name><![CDATA[Gamplüt]]></name>
    <styleUrl>#gtfs_feature</styleUrl>
    <ExtendedData>
        <SchemaData schemaUrl="#gtfs_stops">
            <SimpleData name="stop_id">8530490</SimpleData>
            <SimpleData name="stop_name"><![CDATA[Gamplüt]]></SimpleData>
        </SchemaData>
    </ExtendedData>
    <Point><coordinates>9.343677,47.213039,0</coordinates></Point>
</Placemark>
<Placemark>
    <name><![CDATA[Amden (Talstat. Niederschlag)]]></name>
    <styleUrl>#gtfs_feature</styleUrl>
    <ExtendedData>
        <SchemaData schemaUrl="#gtfs_stops">
            <SimpleData name="stop_id">8530491</SimpleData>
            <SimpleData name="stop_name"><![CDATA[Amden (Talstat. Niederschlag)]]></SimpleData>
        </SchemaData>
    </ExtendedData>
    <Point><coordinates>9.143269,47.149784,0</coordinates></Point>
</Placemark>
<Placemark>
    <name><![CDATA[Niederschlag]]></name>
    <styleUrl>#gtfs_feature</styleUrl>
    <ExtendedData>
        <SchemaData schemaUrl="#gtfs_stops">
            <SimpleData name="stop_id">8530492</SimpleData>
            <SimpleData name="stop_name"><![CDATA[Niederschlag]]></SimpleData>
        </SchemaData>
    </ExtendedData>
    <Point><coordinates>9.146405,47.161667,0</coordinates></Point>
</Placemark>
<Placemark>
    <name><![CDATA[Flumserberg Tannenboden]]></name>
    <styleUrl>#gtfs_feature</styleUrl>
    <ExtendedData>
        <SchemaData schemaUrl="#gtfs_stops">
            <SimpleData name="stop_id">8530493</SimpleData>
            <SimpleData name="stop_name"><![CDATA[Flumserberg Tannenboden]]></SimpleData>
        </SchemaData>
    </ExtendedData>
    <Point><coordinates>9.280887,47.093796,0</coordinates></Point>
</Placemark>
<Placemark>
    <name><![CDATA[Tannenboden (Maschgenkammbahn)]]></name>
    <styleUrl>#gtfs_feature</styleUrl>
    <ExtendedData>
        <SchemaData schemaUrl="#gtfs_stops">
            <SimpleData name="stop_id">8530494</SimpleData>
            <SimpleData name="stop_name"><![CDATA[Tannenboden (Maschgenkammbahn)]]></SimpleData>
        </SchemaData>
    </ExtendedData>
    <Point><coordinates>9.28055,47.092064,0</coordinates></Point>
</Placemark>
<Placemark>
    <name><![CDATA[Maschgenkamm]]></name>
    <styleUrl>#gtfs_feature</styleUrl>
    <ExtendedData>
        <SchemaData schemaUrl="#gtfs_stops">
            <SimpleData name="stop_id">8530495</SimpleData>
            <SimpleData name="stop_name"><![CDATA[Maschgenkamm]]></SimpleData>
        </SchemaData>
    </ExtendedData>
    <Point><coordinates>9.25345,47.069874,0</coordinates></Point>
</Placemark>
<Placemark>
    <name><![CDATA[Flumserberg Tannenheim]]></name>
    <styleUrl>#gtfs_feature</styleUrl>
    <ExtendedData>
        <SchemaData schemaUrl="#gtfs_stops">
            <SimpleData name="stop_id">8530496</SimpleData>
            <SimpleData name="stop_name"><![CDATA[Flumserberg Tannenheim]]></SimpleData>
        </SchemaData>
    </ExtendedData>
    <Point><coordinates>9.303636,47.089146,0</coordinates></Point>
</Placemark>
<Placemark>
    <name><![CDATA[Prodalp]]></name>
    <styleUrl>#gtfs_feature</styleUrl>
    <ExtendedData>
        <SchemaData schemaUrl="#gtfs_stops">
            <SimpleData name="stop_id">8530497</SimpleData>
            <SimpleData name="stop_name"><![CDATA[Prodalp]]></SimpleData>
        </SchemaData>
    </ExtendedData>
    <Point><coordinates>9.290308,47.080498,0</coordinates></Point>
</Placemark>
<Placemark>
    <name><![CDATA[Prodkamm]]></name>
    <styleUrl>#gtfs_feature</styleUrl>
    <ExtendedData>
        <SchemaData schemaUrl="#gtfs_stops">
            <SimpleData name="stop_id">8530498</SimpleData>
            <SimpleData name="stop_name"><![CDATA[Prodkamm]]></SimpleData>
        </SchemaData>
    </ExtendedData>
    <Point><coordinates>9.268231,47.073887,0</coordinates></Point>
</Placemark>
<Placemark>
    <name><![CDATA[Wangs Talstation Pizolbahnen]]></name>
    <styleUrl>#gtfs_feature</styleUrl>
    <ExtendedData>
        <SchemaData schemaUrl="#gtfs_stops">
            <SimpleData name="stop_id">8530499</SimpleData>
            <SimpleData name="stop_name"><![CDATA[Wangs Talstation Pizolbahnen]]></SimpleData>
        </SchemaData>
    </ExtendedData>
    <Point><coordinates>9.432208,47.028824,0</coordinates></Point>
</Placemark>
<Placemark>
    <name><![CDATA[Furt (Bergstation)]]></name>
    <styleUrl>#gtfs_feature</styleUrl>
    <ExtendedData>
        <SchemaData schemaUrl="#gtfs_stops">
            <SimpleData name="stop_id">8530500</SimpleData>
            <SimpleData name="stop_name"><![CDATA[Furt (Bergstation)]]></SimpleData>
        </SchemaData>
    </ExtendedData>
    <Point><coordinates>9.420445,47.002491,0</coordinates></Point>
</Placemark>
<Placemark>
    <name><![CDATA[Gaffia (Bergstation)]]></name>
    <styleUrl>#gtfs_feature</styleUrl>
    <ExtendedData>
        <SchemaData schemaUrl="#gtfs_stops">
            <SimpleData name="stop_id">8530502</SimpleData>
            <SimpleData name="stop_name"><![CDATA[Gaffia (Bergstation)]]></SimpleData>
        </SchemaData>
    </ExtendedData>
    <Point><coordinates>9.412818,46.991123,0</coordinates></Point>
</Placemark>
<Placemark>
    <name><![CDATA[Bad Ragaz Matells (Talst.)]]></name>
    <styleUrl>#gtfs_feature</styleUrl>
    <ExtendedData>
        <SchemaData schemaUrl="#gtfs_stops">
            <SimpleData name="stop_id">8530503</SimpleData>
            <SimpleData name="stop_name"><![CDATA[Bad Ragaz Matells (Talst.)]]></SimpleData>
        </SchemaData>
    </ExtendedData>
    <Point><coordinates>9.473525,47.017273,0</coordinates></Point>
</Placemark>
<Placemark>
    <name><![CDATA[Pardiel]]></name>
    <styleUrl>#gtfs_feature</styleUrl>
    <ExtendedData>
        <SchemaData schemaUrl="#gtfs_stops">
            <SimpleData name="stop_id">8530505</SimpleData>
            <SimpleData name="stop_name"><![CDATA[Pardiel]]></SimpleData>
        </SchemaData>
    </ExtendedData>
    <Point><coordinates>9.464807,46.989532,0</coordinates></Point>
</Placemark>
<Placemark>
    <name><![CDATA[Laufböden (Bergstation)]]></name>
    <styleUrl>#gtfs_feature</styleUrl>
    <ExtendedData>
        <SchemaData schemaUrl="#gtfs_stops">
            <SimpleData name="stop_id">8530506</SimpleData>
            <SimpleData name="stop_name"><![CDATA[Laufböden (Bergstation)]]></SimpleData>
        </SchemaData>
    </ExtendedData>
    <Point><coordinates>9.436485,46.97971,0</coordinates></Point>
</Placemark>
<Placemark>
    <name><![CDATA[Oberschan (Luftseilbahn)]]></name>
    <styleUrl>#gtfs_feature</styleUrl>
    <ExtendedData>
        <SchemaData schemaUrl="#gtfs_stops">
            <SimpleData name="stop_id">8530507</SimpleData>
            <SimpleData name="stop_name"><![CDATA[Oberschan (Luftseilbahn)]]></SimpleData>
        </SchemaData>
    </ExtendedData>
    <Point><coordinates>9.473375,47.097931,0</coordinates></Point>
</Placemark>
<Placemark>
    <name><![CDATA[Hotel Alvier]]></name>
    <styleUrl>#gtfs_feature</styleUrl>
    <ExtendedData>
        <SchemaData schemaUrl="#gtfs_stops">
            <SimpleData name="stop_id">8530508</SimpleData>
            <SimpleData name="stop_name"><![CDATA[Hotel Alvier]]></SimpleData>
        </SchemaData>
    </ExtendedData>
    <Point><coordinates>9.461846,47.09029,0</coordinates></Point>
</Placemark>
<Placemark>
    <name><![CDATA[Malbun (Sareis Talstation)]]></name>
    <styleUrl>#gtfs_feature</styleUrl>
    <ExtendedData>
        <SchemaData schemaUrl="#gtfs_stops">
            <SimpleData name="stop_id">8530509</SimpleData>
            <SimpleData name="stop_name"><![CDATA[Malbun (Sareis Talstation)]]></SimpleData>
        </SchemaData>
    </ExtendedData>
    <Point><coordinates>9.610527,47.100712,0</coordinates></Point>
</Placemark>
<Placemark>
    <name><![CDATA[Sareis]]></name>
    <styleUrl>#gtfs_feature</styleUrl>
    <ExtendedData>
        <SchemaData schemaUrl="#gtfs_stops">
            <SimpleData name="stop_id">8530510</SimpleData>
            <SimpleData name="stop_name"><![CDATA[Sareis]]></SimpleData>
        </SchemaData>
    </ExtendedData>
    <Point><coordinates>9.619474,47.102962,0</coordinates></Point>
</Placemark>
<Placemark>
    <name><![CDATA[Niederurnen]]></name>
    <styleUrl>#gtfs_feature</styleUrl>
    <ExtendedData>
        <SchemaData schemaUrl="#gtfs_stops">
            <SimpleData name="stop_id">8530515</SimpleData>
            <SimpleData name="stop_name"><![CDATA[Niederurnen]]></SimpleData>
        </SchemaData>
    </ExtendedData>
    <Point><coordinates>9.046703,47.12505,0</coordinates></Point>
</Placemark>
<Placemark>
    <name><![CDATA[Morgenholz]]></name>
    <styleUrl>#gtfs_feature</styleUrl>
    <ExtendedData>
        <SchemaData schemaUrl="#gtfs_stops">
            <SimpleData name="stop_id">8530516</SimpleData>
            <SimpleData name="stop_name"><![CDATA[Morgenholz]]></SimpleData>
        </SchemaData>
    </ExtendedData>
    <Point><coordinates>9.020143,47.125534,0</coordinates></Point>
</Placemark>
<Placemark>
    <name><![CDATA[Matt (Seilbahn)]]></name>
    <styleUrl>#gtfs_feature</styleUrl>
    <ExtendedData>
        <SchemaData schemaUrl="#gtfs_stops">
            <SimpleData name="stop_id">8530519</SimpleData>
            <SimpleData name="stop_name"><![CDATA[Matt (Seilbahn)]]></SimpleData>
        </SchemaData>
    </ExtendedData>
    <Point><coordinates>9.171469,46.960117,0</coordinates></Point>
</Placemark>
<Placemark>
    <name><![CDATA[Weissenberge]]></name>
    <styleUrl>#gtfs_feature</styleUrl>
    <ExtendedData>
        <SchemaData schemaUrl="#gtfs_stops">
            <SimpleData name="stop_id">8530520</SimpleData>
            <SimpleData name="stop_name"><![CDATA[Weissenberge]]></SimpleData>
        </SchemaData>
    </ExtendedData>
    <Point><coordinates>9.179575,46.962879,0</coordinates></Point>
</Placemark>
<Placemark>
    <name><![CDATA[Elm (Talstation)]]></name>
    <styleUrl>#gtfs_feature</styleUrl>
    <ExtendedData>
        <SchemaData schemaUrl="#gtfs_stops">
            <SimpleData name="stop_id">8530521</SimpleData>
            <SimpleData name="stop_name"><![CDATA[Elm (Talstation)]]></SimpleData>
        </SchemaData>
    </ExtendedData>
    <Point><coordinates>9.162787,46.913586,0</coordinates></Point>
</Placemark>
<Placemark>
    <name><![CDATA[Empächli]]></name>
    <styleUrl>#gtfs_feature</styleUrl>
    <ExtendedData>
        <SchemaData schemaUrl="#gtfs_stops">
            <SimpleData name="stop_id">8530522</SimpleData>
            <SimpleData name="stop_name"><![CDATA[Empächli]]></SimpleData>
        </SchemaData>
    </ExtendedData>
    <Point><coordinates>9.155249,46.921787,0</coordinates></Point>
</Placemark>
<Placemark>
    <name><![CDATA[Malans (Älplibahn Talstation)]]></name>
    <styleUrl>#gtfs_feature</styleUrl>
    <ExtendedData>
        <SchemaData schemaUrl="#gtfs_stops">
            <SimpleData name="stop_id">8530527</SimpleData>
            <SimpleData name="stop_name"><![CDATA[Malans (Älplibahn Talstation)]]></SimpleData>
        </SchemaData>
    </ExtendedData>
    <Point><coordinates>9.569389,46.986195,0</coordinates></Point>
</Placemark>
<Placemark>
    <name><![CDATA[Älpli]]></name>
    <styleUrl>#gtfs_feature</styleUrl>
    <ExtendedData>
        <SchemaData schemaUrl="#gtfs_stops">
            <SimpleData name="stop_id">8530528</SimpleData>
            <SimpleData name="stop_name"><![CDATA[Älpli]]></SimpleData>
        </SchemaData>
    </ExtendedData>
    <Point><coordinates>9.588487,47.012581,0</coordinates></Point>
</Placemark>
<Placemark>
    <name><![CDATA[Klosters Dorf (Talst. Madrisa)]]></name>
    <styleUrl>#gtfs_feature</styleUrl>
    <ExtendedData>
        <SchemaData schemaUrl="#gtfs_stops">
            <SimpleData name="stop_id">8530533</SimpleData>
            <SimpleData name="stop_name"><![CDATA[Klosters Dorf (Talst. Madrisa)]]></SimpleData>
        </SchemaData>
    </ExtendedData>
    <Point><coordinates>9.875579,46.88451,0</coordinates></Point>
</Placemark>
<Placemark>
    <name><![CDATA[Madrisa]]></name>
    <styleUrl>#gtfs_feature</styleUrl>
    <ExtendedData>
        <SchemaData schemaUrl="#gtfs_stops">
            <SimpleData name="stop_id">8530534</SimpleData>
            <SimpleData name="stop_name"><![CDATA[Madrisa]]></SimpleData>
        </SchemaData>
    </ExtendedData>
    <Point><coordinates>9.864089,46.902168,0</coordinates></Point>
</Placemark>
<Placemark>
    <name><![CDATA[Parsennhütte]]></name>
    <styleUrl>#gtfs_feature</styleUrl>
    <ExtendedData>
        <SchemaData schemaUrl="#gtfs_stops">
            <SimpleData name="stop_id">8530535</SimpleData>
            <SimpleData name="stop_name"><![CDATA[Parsennhütte]]></SimpleData>
        </SchemaData>
    </ExtendedData>
    <Point><coordinates>9.825332,46.850498,0</coordinates></Point>
</Placemark>
<Placemark>
    <name><![CDATA[Dörfji]]></name>
    <styleUrl>#gtfs_feature</styleUrl>
    <ExtendedData>
        <SchemaData schemaUrl="#gtfs_stops">
            <SimpleData name="stop_id">8530540</SimpleData>
            <SimpleData name="stop_name"><![CDATA[Dörfji]]></SimpleData>
        </SchemaData>
    </ExtendedData>
    <Point><coordinates>9.896091,46.802578,0</coordinates></Point>
</Placemark>
<Placemark>
    <name><![CDATA[Pischa]]></name>
    <styleUrl>#gtfs_feature</styleUrl>
    <ExtendedData>
        <SchemaData schemaUrl="#gtfs_stops">
            <SimpleData name="stop_id">8530541</SimpleData>
            <SimpleData name="stop_name"><![CDATA[Pischa]]></SimpleData>
        </SchemaData>
    </ExtendedData>
    <Point><coordinates>9.918871,46.809422,0</coordinates></Point>
</Placemark>
<Placemark>
    <name><![CDATA[Piz Mundaun]]></name>
    <styleUrl>#gtfs_feature</styleUrl>
    <ExtendedData>
        <SchemaData schemaUrl="#gtfs_stops">
            <SimpleData name="stop_id">8530543</SimpleData>
            <SimpleData name="stop_name"><![CDATA[Piz Mundaun]]></SimpleData>
        </SchemaData>
    </ExtendedData>
    <Point><coordinates>9.143322,46.749863,0</coordinates></Point>
</Placemark>
<Placemark>
    <name><![CDATA[Chur (Brambrüeschbahn)]]></name>
    <styleUrl>#gtfs_feature</styleUrl>
    <ExtendedData>
        <SchemaData schemaUrl="#gtfs_stops">
            <SimpleData name="stop_id">8530545</SimpleData>
            <SimpleData name="stop_name"><![CDATA[Chur (Brambrüeschbahn)]]></SimpleData>
        </SchemaData>
    </ExtendedData>
    <Point><coordinates>9.525763,46.847336,0</coordinates></Point>
</Placemark>
<Placemark>
    <name><![CDATA[Känzeli (Chur)]]></name>
    <styleUrl>#gtfs_feature</styleUrl>
    <ExtendedData>
        <SchemaData schemaUrl="#gtfs_stops">
            <SimpleData name="stop_id">8530546</SimpleData>
            <SimpleData name="stop_name"><![CDATA[Känzeli (Chur)]]></SimpleData>
        </SchemaData>
    </ExtendedData>
    <Point><coordinates>9.525582,46.838932,0</coordinates></Point>
</Placemark>
<Placemark>
    <name><![CDATA[Wali]]></name>
    <styleUrl>#gtfs_feature</styleUrl>
    <ExtendedData>
        <SchemaData schemaUrl="#gtfs_stops">
            <SimpleData name="stop_id">8530558</SimpleData>
            <SimpleData name="stop_name"><![CDATA[Wali]]></SimpleData>
        </SchemaData>
    </ExtendedData>
    <Point><coordinates>9.108479,46.725014,0</coordinates></Point>
</Placemark>
<Placemark>
    <name><![CDATA[Stein (Obersaxen)]]></name>
    <styleUrl>#gtfs_feature</styleUrl>
    <ExtendedData>
        <SchemaData schemaUrl="#gtfs_stops">
            <SimpleData name="stop_id">8530559</SimpleData>
            <SimpleData name="stop_name"><![CDATA[Stein (Obersaxen)]]></SimpleData>
        </SchemaData>
    </ExtendedData>
    <Point><coordinates>9.125462,46.726284,0</coordinates></Point>
</Placemark>
<Placemark>
    <name><![CDATA[Obersaxen Valata (Talstation)]]></name>
    <styleUrl>#gtfs_feature</styleUrl>
    <ExtendedData>
        <SchemaData schemaUrl="#gtfs_stops">
            <SimpleData name="stop_id">8530562</SimpleData>
            <SimpleData name="stop_name"><![CDATA[Obersaxen Valata (Talstation)]]></SimpleData>
        </SchemaData>
    </ExtendedData>
    <Point><coordinates>9.138151,46.761494,0</coordinates></Point>
</Placemark>
<Placemark>
    <name><![CDATA[Cuolm Sura (Valata)]]></name>
    <styleUrl>#gtfs_feature</styleUrl>
    <ExtendedData>
        <SchemaData schemaUrl="#gtfs_stops">
            <SimpleData name="stop_id">8530563</SimpleData>
            <SimpleData name="stop_name"><![CDATA[Cuolm Sura (Valata)]]></SimpleData>
        </SchemaData>
    </ExtendedData>
    <Point><coordinates>9.143361,46.749844,0</coordinates></Point>
</Placemark>
<Placemark>
    <name><![CDATA[Belalp Chiematte]]></name>
    <styleUrl>#gtfs_feature</styleUrl>
    <ExtendedData>
        <SchemaData schemaUrl="#gtfs_stops">
            <SimpleData name="stop_id">8530566</SimpleData>
            <SimpleData name="stop_name"><![CDATA[Belalp Chiematte]]></SimpleData>
        </SchemaData>
    </ExtendedData>
    <Point><coordinates>7.967495,46.369835,0</coordinates></Point>
</Placemark>
<Placemark>
    <name><![CDATA[Vals (Talstation)]]></name>
    <styleUrl>#gtfs_feature</styleUrl>
    <ExtendedData>
        <SchemaData schemaUrl="#gtfs_stops">
            <SimpleData name="stop_id">8530568</SimpleData>
            <SimpleData name="stop_name"><![CDATA[Vals (Talstation)]]></SimpleData>
        </SchemaData>
    </ExtendedData>
    <Point><coordinates>9.173301,46.609173,0</coordinates></Point>
</Placemark>
<Placemark>
    <name><![CDATA[Gadastatt]]></name>
    <styleUrl>#gtfs_feature</styleUrl>
    <ExtendedData>
        <SchemaData schemaUrl="#gtfs_stops">
            <SimpleData name="stop_id">8530569</SimpleData>
            <SimpleData name="stop_name"><![CDATA[Gadastatt]]></SimpleData>
        </SchemaData>
    </ExtendedData>
    <Point><coordinates>9.151488,46.606003,0</coordinates></Point>
</Placemark>
<Placemark>
    <name><![CDATA[Vella (pendicularas)]]></name>
    <styleUrl>#gtfs_feature</styleUrl>
    <ExtendedData>
        <SchemaData schemaUrl="#gtfs_stops">
            <SimpleData name="stop_id">8530570</SimpleData>
            <SimpleData name="stop_name"><![CDATA[Vella (pendicularas)]]></SimpleData>
        </SchemaData>
    </ExtendedData>
    <Point><coordinates>9.16945,46.717239,0</coordinates></Point>
</Placemark>
<Placemark>
    <name><![CDATA[Triel]]></name>
    <styleUrl>#gtfs_feature</styleUrl>
    <ExtendedData>
        <SchemaData schemaUrl="#gtfs_stops">
            <SimpleData name="stop_id">8530571</SimpleData>
            <SimpleData name="stop_name"><![CDATA[Triel]]></SimpleData>
        </SchemaData>
    </ExtendedData>
    <Point><coordinates>9.157106,46.724003,0</coordinates></Point>
</Placemark>
<Placemark>
    <name><![CDATA[Hitzeggen]]></name>
    <styleUrl>#gtfs_feature</styleUrl>
    <ExtendedData>
        <SchemaData schemaUrl="#gtfs_stops">
            <SimpleData name="stop_id">8530572</SimpleData>
            <SimpleData name="stop_name"><![CDATA[Hitzeggen]]></SimpleData>
        </SchemaData>
    </ExtendedData>
    <Point><coordinates>9.143693,46.735504,0</coordinates></Point>
</Placemark>
<Placemark>
    <name><![CDATA[Disentis/Mustér (Talstation)]]></name>
    <styleUrl>#gtfs_feature</styleUrl>
    <ExtendedData>
        <SchemaData schemaUrl="#gtfs_stops">
            <SimpleData name="stop_id">8530573</SimpleData>
            <SimpleData name="stop_name"><![CDATA[Disentis/Mustér (Talstation)]]></SimpleData>
        </SchemaData>
    </ExtendedData>
    <Point><coordinates>8.841118,46.700951,0</coordinates></Point>
</Placemark>
<Placemark>
    <name><![CDATA[Caischavedra (Disentis)]]></name>
    <styleUrl>#gtfs_feature</styleUrl>
    <ExtendedData>
        <SchemaData schemaUrl="#gtfs_stops">
            <SimpleData name="stop_id">8530574</SimpleData>
            <SimpleData name="stop_name"><![CDATA[Caischavedra (Disentis)]]></SimpleData>
        </SchemaData>
    </ExtendedData>
    <Point><coordinates>8.815865,46.704494,0</coordinates></Point>
</Placemark>
<Placemark>
    <name><![CDATA[Churwalden (Talst.Pradaschier)]]></name>
    <styleUrl>#gtfs_feature</styleUrl>
    <ExtendedData>
        <SchemaData schemaUrl="#gtfs_stops">
            <SimpleData name="stop_id">8530580</SimpleData>
            <SimpleData name="stop_name"><![CDATA[Churwalden (Talst.Pradaschier)]]></SimpleData>
        </SchemaData>
    </ExtendedData>
    <Point><coordinates>9.541322,46.778622,0</coordinates></Point>
</Placemark>
<Placemark>
    <name><![CDATA[Alp Pradaschier]]></name>
    <styleUrl>#gtfs_feature</styleUrl>
    <ExtendedData>
        <SchemaData schemaUrl="#gtfs_stops">
            <SimpleData name="stop_id">8530581</SimpleData>
            <SimpleData name="stop_name"><![CDATA[Alp Pradaschier]]></SimpleData>
        </SchemaData>
    </ExtendedData>
    <Point><coordinates>9.520238,46.783157,0</coordinates></Point>
</Placemark>
<Placemark>
    <name><![CDATA[Churwalden (Talstation)]]></name>
    <styleUrl>#gtfs_feature</styleUrl>
    <ExtendedData>
        <SchemaData schemaUrl="#gtfs_stops">
            <SimpleData name="stop_id">8530582</SimpleData>
            <SimpleData name="stop_name"><![CDATA[Churwalden (Talstation)]]></SimpleData>
        </SchemaData>
    </ExtendedData>
    <Point><coordinates>9.541605,46.777142,0</coordinates></Point>
</Placemark>
<Placemark>
    <name><![CDATA[Heidbüel]]></name>
    <styleUrl>#gtfs_feature</styleUrl>
    <ExtendedData>
        <SchemaData schemaUrl="#gtfs_stops">
            <SimpleData name="stop_id">8530583</SimpleData>
            <SimpleData name="stop_name"><![CDATA[Heidbüel]]></SimpleData>
        </SchemaData>
    </ExtendedData>
    <Point><coordinates>9.531625,46.764683,0</coordinates></Point>
</Placemark>
<Placemark>
    <name><![CDATA[Lenzerheide/Lai Val Sporz]]></name>
    <styleUrl>#gtfs_feature</styleUrl>
    <ExtendedData>
        <SchemaData schemaUrl="#gtfs_stops">
            <SimpleData name="stop_id">8530584</SimpleData>
            <SimpleData name="stop_name"><![CDATA[Lenzerheide/Lai Val Sporz]]></SimpleData>
        </SchemaData>
    </ExtendedData>
    <Point><coordinates>9.546252,46.725163,0</coordinates></Point>
</Placemark>